$GPGGA,141322.38,6024.8339,N,3028.1953,E,0,00,0.1,74.0,M,0.0,M,1.0,0001*7b,$GPRMC,141322.38,A,6024.8339,N,3028.1953,E,0.0,180.0,011020,10.5,E,A*30
$GPGGA,141322.66,6024.8339,N,3028.1954,E,2,19,0.1,74.0,M,0.0,M,1.0,0001*7d,$GPRMC,141322.66,A,6024.8339,N,3028.1954,E,0.0,0.0,011020,10.5,E,A*35
$GPGGA,141322.98,6024.8339,N,3028.1954,E,2,19,0.1,74.0,M,0.0,M,1.0,0001*7c,$GPRMC,141322.98,A,6024.8339,N,3028.1954,E,0.0,-90.0,011020,10.5,E,A*20
$GPGGA,141323.26,6024.8339,N,3028.1954,E,2,19,0.1,74.0,M,0.0,M,1.0,0001*78,$GPRMC,141323.26,A,6024.8339,N,3028.1954,E,0.0,90.0,011020,10.5,E,A*09
$GPGGA,141323.58,6024.8339,N,3028.1954,E,2,19,0.1,74.0,M,0.0,M,1.0,0001*71,$GPRMC,141323.58,A,6024.8339,N,3028.1954,E,0.0,0.0,011020,10.5,E,A*39
$GPGGA,141323.90,6024.8339,N,3028.1954,E,2,19,0.1,74.0,M,0.0,M,1.0,0001*75,$GPRMC,141323.90,A,6024.8339,N,3028.1954,E,0.0,90.0,011020,10.5,E,A*04
$GPGGA,141324.14,6024.8339,N,3028.1954,E,2,19,0.1,74.0,M,0.0,M,1.0,0001*7e,$GPRMC,141324.14,A,6024.8339,N,3028.1954,E,0.0,0.0,011020,10.5,E,A*36
$GPGGA,141324.47,6024.8339,N,3028.1954,E,2,19,0.1,74.0,M,0.0,M,1.0,0001*78,$GPRMC,141324.47,A,6024.8339,N,3028.1954,E,0.0,0.0,011020,10.5,E,A*30
$GPGGA,141324.82,6024.8339,N,3028.1954,E,2,19,0.1,74.0,M,0.0,M,1.0,0001*71,$GPRMC,141324.82,A,6024.8339,N,3028.1954,E,0.0,90.0,011020,10.5,E,A*00
$GPGGA,141325.06,6024.8339,N,3028.1954,E,2,19,0.1,74.0,M,0.0,M,1.0,0001*7c,$GPRMC,141325.06,A,6024.8339,N,3028.1954,E,0.0,0.0,011020,10.5,E,A*34
$GPGGA,141325.34,6024.8339,N,3028.1954,E,2,19,0.1,74.0,M,0.0,M,1.0,0001*7d,$GPRMC,141325.34,A,6024.8339,N,3028.1954,E,0.0,90.0,011020,10.5,E,A*0c
$GPGGA,141325.67,6024.8339,N,3028.1954,E,2,19,0.1,74.0,M,0.0,M,1.0,0001*7b,$GPRMC,141325.67,A,6024.8339,N,3028.1954,E,0.0,0.0,011020,10.5,E,A*33
$GPGGA,141325.94,6024.8339,N,3028.1954,E,2,19,0.1,74.0,M,0.0,M,1.0,0001*77,$GPRMC,141325.94,A,6024.8339,N,3028.1954,E,0.0,0.0,011020,10.5,E,A*3f
$GPGGA,141326.27,6024.8340,N,3028.1955,E,2,19,0.1,74.0,M,0.0,M,1.0,0001*73,$GPRMC,141326.27,A,6024.8340,N,3028.1955,E,0.0,0.0,011020,10.5,E,A*3b
$GPGGA,141326.54,6024.8340,N,3028.1955,E,2,19,0.1,74.0,M,0.0,M,1.0,0001*77,$GPRMC,141326.54,A,6024.8340,N,3028.1955,E,0.0,0.0,011020,10.5,E,A*3f
$GPGGA,141326.94,6024.8340,N,3028.1955,E,2,19,0.1,74.0,M,0.0,M,1.0,0001*7b,$GPRMC,141326.94,A,6024.8340,N,3028.1955,E,9.7,0.0,011020,10.5,E,A*3d
$GPGGA,141327.14,6024.8340,N,3028.1955,E,2,19,0.1,74.0,M,0.0,M,1.0,0001*72,$GPRMC,141327.14,A,6024.8340,N,3028.1955,E,9.7,180.0,011020,10.5,E,A*3d
$GPGGA,141327.47,6024.8340,N,3028.1955,E,2,19,0.1,74.0,M,0.0,M,1.0,0001*74,$GPRMC,141327.47,A,6024.8340,N,3028.1955,E,9.7,0.0,011020,10.5,E,A*32
$GPGGA,141327.75,6024.8340,N,3028.1955,E,2,19,0.1,74.0,M,0.0,M,1.0,0001*75,$GPRMC,141327.75,A,6024.8340,N,3028.1955,E,9.7,0.0,011020,10.5,E,A*33
$GPGGA,141328.11,6024.8340,N,3028.1955,E,2,20,0.1,74.0,M,0.0,M,1.0,0001*72,$GPRMC,141328.11,A,6024.8340,N,3028.1955,E,9.7,0.0,011020,10.5,E,A*3e
$GPGGA,141328.34,6024.8340,N,3028.1955,E,2,20,0.1,74.0,M,0.0,M,1.0,0001*75,$GPRMC,141328.34,A,6024.8340,N,3028.1955,E,9.7,0.0,011020,10.5,E,A*39
$GPGGA,141328.66,6024.8340,N,3028.1955,E,2,20,0.1,74.0,M,0.0,M,1.0,0001*72,$GPRMC,141328.66,A,6024.8340,N,3028.1955,E,9.7,0.0,011020,10.5,E,A*3e
$GPGGA,141328.98,6024.8340,N,3028.1955,E,2,20,0.1,74.0,M,0.0,M,1.0,0001*73,$GPRMC,141328.98,A,6024.8340,N,3028.1955,E,9.7,-90.0,011020,10.5,E,A*2b
$GPGGA,141329.27,6024.8340,N,3028.1955,E,2,20,0.1,74.0,M,0.0,M,1.0,0001*76,$GPRMC,141329.27,A,6024.8340,N,3028.1955,E,9.7,0.0,011020,10.5,E,A*3a
$GPGGA,141329.54,6024.8340,N,3028.1955,E,2,20,0.1,74.0,M,0.0,M,1.0,0001*72,$GPRMC,141329.54,A,6024.8340,N,3028.1955,E,9.7,0.0,011020,10.5,E,A*3e
$GPGGA,141329.87,6024.8340,N,3028.1955,E,2,20,0.1,74.0,M,0.0,M,1.0,0001*7c,$GPRMC,141329.87,A,6024.8340,N,3028.1955,E,9.7,90.0,011020,10.5,E,A*09
$GPGGA,141330.15,6024.8340,N,3028.1955,E,2,20,0.1,73.0,M,0.0,M,1.0,0001*78,$GPRMC,141330.15,A,6024.8340,N,3028.1955,E,9.7,0.0,011020,10.5,E,A*33
$GPGGA,141330.46,6024.8340,N,3028.1955,E,2,20,0.1,73.0,M,0.0,M,1.0,0001*7e,$GPRMC,141330.46,A,6024.8340,N,3028.1955,E,9.7,-90.0,011020,10.5,E,A*21
$GPGGA,141330.75,6024.8340,N,3028.1955,E,2,20,0.1,73.0,M,0.0,M,1.0,0001*7e,$GPRMC,141330.75,A,6024.8340,N,3028.1955,E,9.7,0.0,011020,10.5,E,A*35
$GPGGA,141331.06,6024.8340,N,3028.1955,E,2,20,0.1,73.0,M,0.0,M,1.0,0001*7b,$GPRMC,141331.06,A,6024.8340,N,3028.1955,E,9.7,0.0,011020,10.5,E,A*30
$GPGGA,141331.35,6024.8340,N,3028.1955,E,2,20,0.1,73.0,M,0.0,M,1.0,0001*7b,$GPRMC,141331.35,A,6024.8340,N,3028.1955,E,9.7,90.0,011020,10.5,E,A*09
$GPGGA,141331.62,6024.8340,N,3028.1955,E,2,20,0.1,73.0,M,0.0,M,1.0,0001*79,$GPRMC,141331.62,A,6024.8340,N,3028.1955,E,9.7,0.0,011020,10.5,E,A*32
$GPGGA,141331.98,6024.8340,N,3028.1955,E,2,20,0.1,73.0,M,0.0,M,1.0,0001*7c,$GPRMC,141331.98,A,6024.8340,N,3028.1955,E,9.7,0.0,011020,10.5,E,A*37
$GPGGA,141332.23,6024.8340,N,3028.1955,E,2,20,0.1,73.0,M,0.0,M,1.0,0001*7f,$GPRMC,141332.23,A,6024.8340,N,3028.1955,E,9.7,0.0,011020,10.5,E,A*34
$GPGGA,141332.54,6024.8340,N,3028.1955,E,2,20,0.1,73.0,M,0.0,M,1.0,0001*7f,$GPRMC,141332.54,A,6024.8340,N,3028.1955,E,9.7,0.0,011020,10.5,E,A*34
$GPGGA,141332.83,6024.8340,N,3028.1955,E,2,20,0.1,73.0,M,0.0,M,1.0,0001*75,$GPRMC,141332.83,A,6024.8340,N,3028.1955,E,9.7,-45.0,011020,10.5,E,A*22
$GPGGA,141333.14,6024.8340,N,3028.1955,E,2,20,0.1,73.0,M,0.0,M,1.0,0001*7a,$GPRMC,141333.14,A,6024.8340,N,3028.1955,E,9.7,180.0,011020,10.5,E,A*38
$GPGGA,141333.42,6024.8340,N,3028.1955,E,2,20,0.1,73.0,M,0.0,M,1.0,0001*79,$GPRMC,141333.42,A,6024.8340,N,3028.1955,E,9.7,90.0,011020,10.5,E,A*0b
$GPGGA,141333.75,6024.8340,N,3028.1955,E,2,20,0.1,73.0,M,0.0,M,1.0,0001*7d,$GPRMC,141333.75,A,6024.8340,N,3028.1955,E,9.7,0.0,011020,10.5,E,A*36
$GPGGA,141334.03,6024.8340,N,3028.1955,E,2,20,0.1,73.0,M,0.0,M,1.0,0001*7b,$GPRMC,141334.03,A,6024.8340,N,3028.1955,E,9.7,90.0,011020,10.5,E,A*09
$GPGGA,141334.34,6024.8340,N,3028.1955,E,2,20,0.1,73.0,M,0.0,M,1.0,0001*7f,$GPRMC,141334.34,A,6024.8340,N,3028.1955,E,9.7,0.0,011020,10.5,E,A*34
$GPGGA,141334.62,6024.8340,N,3028.1955,E,2,20,0.1,73.0,M,0.0,M,1.0,0001*7c,$GPRMC,141334.62,A,6024.8340,N,3028.1955,E,9.7,0.0,011020,10.5,E,A*37
$GPGGA,141334.98,6024.8340,N,3028.1955,E,2,20,0.1,73.0,M,0.0,M,1.0,0001*79,$GPRMC,141334.98,A,6024.8340,N,3028.1955,E,9.7,0.0,011020,10.5,E,A*32
$GPGGA,141335.23,6024.8340,N,3028.1955,E,2,20,0.1,73.0,M,0.0,M,1.0,0001*78,$GPRMC,141335.23,A,6024.8340,N,3028.1955,E,9.7,-135.0,011020,10.5,E,A*19
$GPGGA,141335.54,6024.8340,N,3028.1955,E,2,20,0.1,73.0,M,0.0,M,1.0,0001*78,$GPRMC,141335.54,A,6024.8340,N,3028.1955,E,9.7,90.0,011020,10.5,E,A*0a
$GPGGA,141335.82,6024.8340,N,3028.1955,E,2,20,0.1,73.0,M,0.0,M,1.0,0001*73,$GPRMC,141335.82,A,6024.8340,N,3028.1955,E,9.7,0.0,011020,10.5,E,A*38
$GPGGA,141336.14,6024.8340,N,3028.1955,E,2,20,0.1,73.0,M,0.0,M,1.0,0001*7f,$GPRMC,141336.14,A,6024.8340,N,3028.1955,E,9.7,90.0,011020,10.5,E,A*0d
$GPGGA,141336.46,6024.8340,N,3028.1955,E,2,20,0.1,73.0,M,0.0,M,1.0,0001*78,$GPRMC,141336.46,A,6024.8340,N,3028.1955,E,9.7,0.0,011020,10.5,E,A*33
$GPGGA,141336.75,6024.8339,N,3028.1955,E,2,20,0.1,73.0,M,0.0,M,1.0,0001*76,$GPRMC,141336.75,A,6024.8339,N,3028.1955,E,9.7,0.0,011020,10.5,E,A*3d
$GPGGA,141337.02,6024.8339,N,3028.1955,E,2,20,0.1,73.0,M,0.0,M,1.0,0001*77,$GPRMC,141337.02,A,6024.8339,N,3028.1955,E,9.7,0.0,011020,10.5,E,A*3c
$GPGGA,141337.34,6024.8339,N,3028.1955,E,2,20,0.1,73.0,M,0.0,M,1.0,0001*72,$GPRMC,141337.34,A,6024.8339,N,3028.1955,E,9.7,0.0,011020,10.5,E,A*39
$GPGGA,141337.62,6024.8339,N,3028.1955,E,2,20,0.1,73.0,M,0.0,M,1.0,0001*71,$GPRMC,141337.62,A,6024.8339,N,3028.1955,E,9.7,180.0,011020,10.5,E,A*33
$GPGGA,141337.94,6024.8339,N,3028.1955,E,2,20,0.1,73.0,M,0.0,M,1.0,0001*78,$GPRMC,141337.94,A,6024.8339,N,3028.1955,E,9.7,-135.0,011020,10.5,E,A*19
$GPGGA,141338.23,6024.8339,N,3028.1955,E,2,20,0.1,73.0,M,0.0,M,1.0,0001*7b,$GPRMC,141338.23,A,6024.8339,N,3028.1955,E,9.7,0.0,011020,10.5,E,A*30
$GPGGA,141338.54,6024.8339,N,3028.1955,E,2,20,0.1,73.0,M,0.0,M,1.0,0001*7b,$GPRMC,141338.54,A,6024.8339,N,3028.1955,E,9.7,90.0,011020,10.5,E,A*09
$GPGGA,141338.82,6024.8339,N,3028.1955,E,2,20,0.1,73.0,M,0.0,M,1.0,0001*70,$GPRMC,141338.82,A,6024.8339,N,3028.1955,E,9.7,-90.0,011020,10.5,E,A*2f
$GPGGA,141339.10,6024.8339,N,3028.1955,E,2,20,0.1,73.0,M,0.0,M,1.0,0001*7a,$GPRMC,141339.10,A,6024.8339,N,3028.1955,E,9.7,90.0,011020,10.5,E,A*08
$GPGGA,141339.42,6024.8339,N,3028.1955,E,2,20,0.1,73.0,M,0.0,M,1.0,0001*7d,$GPRMC,141339.42,A,6024.8339,N,3028.1955,E,9.7,-26.0,011020,10.5,E,A*2f
$GPGGA,141339.70,6024.8339,N,3028.1955,E,2,20,0.1,73.0,M,0.0,M,1.0,0001*7c,$GPRMC,141339.70,A,6024.8339,N,3028.1955,E,9.7,180.0,011020,10.5,E,A*3e
$GPGGA,141340.02,6024.8339,N,3028.1955,E,2,20,0.1,73.0,M,0.0,M,1.0,0001*77,$GPRMC,141340.02,A,6024.8339,N,3028.1955,E,9.7,45.0,011020,10.5,E,A*0d
$GPGGA,141340.30,6024.8339,N,3028.1955,E,2,20,0.1,73.0,M,0.0,M,1.0,0001*76,$GPRMC,141340.30,A,6024.8339,N,3028.1955,E,9.7,153.0,011020,10.5,E,A*3a
$GPGGA,141340.62,6024.8339,N,3028.1955,E,2,20,0.1,73.0,M,0.0,M,1.0,0001*71,$GPRMC,141340.62,A,6024.8339,N,3028.1955,E,9.7,0.0,011020,10.5,E,A*3a
$GPGGA,141340.90,6024.8339,N,3028.1955,E,2,20,0.1,73.0,M,0.0,M,1.0,0001*7c,$GPRMC,141340.90,A,6024.8339,N,3028.1955,E,9.7,0.0,011020,10.5,E,A*37
$GPGGA,141341.23,6024.8339,N,3028.1955,E,2,20,0.1,73.0,M,0.0,M,1.0,0001*75,$GPRMC,141341.23,A,6024.8339,N,3028.1955,E,9.7,0.0,011020,10.5,E,A*3e
$GPGGA,141341.50,6024.8338,N,3028.1956,E,2,20,0.1,73.0,M,0.0,M,1.0,0001*73,$GPRMC,141341.50,A,6024.8338,N,3028.1956,E,9.7,-90.0,011020,10.5,E,A*2c
$GPGGA,141341.82,6024.8338,N,3028.1956,E,2,20,0.1,73.0,M,0.0,M,1.0,0001*7c,$GPRMC,141341.82,A,6024.8338,N,3028.1956,E,9.7,90.0,011020,10.5,E,A*0e
$GPGGA,141342.10,6024.8338,N,3028.1956,E,2,20,0.1,73.0,M,0.0,M,1.0,0001*74,$GPRMC,141342.10,A,6024.8338,N,3028.1956,E,9.7,0.0,011020,10.5,E,A*3f
$GPGGA,141342.42,6024.8338,N,3028.1956,E,2,19,0.1,73.0,M,0.0,M,1.0,0001*79,$GPRMC,141342.42,A,6024.8338,N,3028.1956,E,9.7,90.0,011020,10.5,E,A*01
$GPGGA,141342.74,6024.8338,N,3028.1956,E,2,19,0.1,72.0,M,0.0,M,1.0,0001*7d,$GPRMC,141342.74,A,6024.8338,N,3028.1956,E,9.7,90.0,011020,10.5,E,A*04
$GPGGA,141343.06,6024.8338,N,3028.1956,E,2,19,0.1,72.0,M,0.0,M,1.0,0001*79,$GPRMC,141343.06,A,6024.8338,N,3028.1956,E,9.7,0.0,011020,10.5,E,A*39
$GPGGA,141343.30,6024.8338,N,3028.1956,E,2,19,0.1,72.0,M,0.0,M,1.0,0001*7c,$GPRMC,141343.30,A,6024.8338,N,3028.1956,E,9.7,0.0,011020,10.5,E,A*3c
$GPGGA,141343.62,6024.8338,N,3028.1956,E,2,19,0.1,72.0,M,0.0,M,1.0,0001*7b,$GPRMC,141343.62,A,6024.8338,N,3028.1956,E,9.7,0.0,011020,10.5,E,A*3b
$GPGGA,141343.90,6024.8338,N,3028.1956,E,2,19,0.1,72.0,M,0.0,M,1.0,0001*76,$GPRMC,141343.90,A,6024.8338,N,3028.1956,E,9.7,0.0,011020,10.5,E,A*36
$GPGGA,141344.23,6024.8338,N,3028.1956,E,2,19,0.1,72.0,M,0.0,M,1.0,0001*79,$GPRMC,141344.23,A,6024.8338,N,3028.1956,E,9.7,0.0,011020,10.5,E,A*39
$GPGGA,141344.50,6024.8338,N,3028.1956,E,2,19,0.1,72.0,M,0.0,M,1.0,0001*7d,$GPRMC,141344.50,A,6024.8338,N,3028.1956,E,9.7,0.0,011020,10.5,E,A*3d
$GPGGA,141344.82,6024.8337,N,3028.1956,E,2,19,0.1,72.0,M,0.0,M,1.0,0001*7d,$GPRMC,141344.82,A,6024.8337,N,3028.1956,E,9.7,0.0,011020,10.5,E,A*3d
$GPGGA,141345.10,6024.8337,N,3028.1956,E,2,19,0.1,72.0,M,0.0,M,1.0,0001*77,$GPRMC,141345.10,A,6024.8337,N,3028.1956,E,9.7,0.0,011020,10.5,E,A*37
$GPGGA,141345.42,6024.8337,N,3028.1956,E,2,19,0.1,72.0,M,0.0,M,1.0,0001*70,$GPRMC,141345.42,A,6024.8337,N,3028.1956,E,9.7,0.0,011020,10.5,E,A*30
$GPGGA,141345.70,6024.8337,N,3028.1956,E,2,19,0.1,72.0,M,0.0,M,1.0,0001*71,$GPRMC,141345.70,A,6024.8337,N,3028.1956,E,9.7,0.0,011020,10.5,E,A*31
$GPGGA,141346.02,6024.8337,N,3028.1956,E,2,19,0.1,72.0,M,0.0,M,1.0,0001*77,$GPRMC,141346.02,A,6024.8337,N,3028.1956,E,9.7,90.0,011020,10.5,E,A*0e
$GPGGA,141346.30,6024.8337,N,3028.1956,E,2,19,0.1,72.0,M,0.0,M,1.0,0001*76,$GPRMC,141346.30,A,6024.8337,N,3028.1956,E,9.7,0.0,011020,10.5,E,A*36
$GPGGA,141346.59,6024.8337,N,3028.1956,E,2,19,0.1,72.0,M,0.0,M,1.0,0001*79,$GPRMC,141346.59,A,6024.8337,N,3028.1956,E,9.7,0.0,011020,10.5,E,A*39
$GPGGA,141346.90,6024.8337,N,3028.1956,E,2,19,0.1,72.0,M,0.0,M,1.0,0001*7c,$GPRMC,141346.90,A,6024.8337,N,3028.1956,E,9.7,0.0,011020,10.5,E,A*3c
$GPGGA,141347.18,6024.8337,N,3028.1956,E,2,19,0.1,72.0,M,0.0,M,1.0,0001*7d,$GPRMC,141347.18,A,6024.8337,N,3028.1956,E,9.7,-90.0,011020,10.5,E,A*29
$GPGGA,141347.50,6024.8337,N,3028.1956,E,2,19,0.1,72.0,M,0.0,M,1.0,0001*71,$GPRMC,141347.50,A,6024.8337,N,3028.1956,E,9.7,90.0,011020,10.5,E,A*08
$GPGGA,141347.78,6024.8337,N,3028.1956,E,2,19,0.1,72.0,M,0.0,M,1.0,0001*7b,$GPRMC,141347.78,A,6024.8337,N,3028.1956,E,9.7,0.0,011020,10.5,E,A*3b
$GPGGA,141348.10,6024.8337,N,3028.1956,E,2,19,0.1,72.0,M,0.0,M,1.0,0001*7a,$GPRMC,141348.10,A,6024.8337,N,3028.1956,E,9.7,0.0,011020,10.5,E,A*3a
$GPGGA,141348.38,6024.8337,N,3028.1956,E,2,19,0.1,72.0,M,0.0,M,1.0,0001*70,$GPRMC,141348.38,A,6024.8337,N,3028.1956,E,9.7,-90.0,011020,10.5,E,A*24
$GPGGA,141348.70,6024.8337,N,3028.1956,E,2,19,0.1,72.0,M,0.0,M,1.0,0001*7c,$GPRMC,141348.70,A,6024.8337,N,3028.1956,E,9.7,0.0,011020,10.5,E,A*3c
$GPGGA,141348.98,6024.8337,N,3028.1956,E,2,19,0.1,72.0,M,0.0,M,1.0,0001*7a,$GPRMC,141348.98,A,6024.8337,N,3028.1956,E,9.7,0.0,011020,10.5,E,A*3a
$GPGGA,141349.30,6024.8337,N,3028.1957,E,2,19,0.1,72.0,M,0.0,M,1.0,0001*78,$GPRMC,141349.30,A,6024.8337,N,3028.1957,E,9.7,180.0,011020,10.5,E,A*31
$GPGGA,141349.58,6024.8337,N,3028.1957,E,2,19,0.1,72.0,M,0.0,M,1.0,0001*76,$GPRMC,141349.58,A,6024.8337,N,3028.1957,E,9.7,0.0,011020,10.5,E,A*36
$GPGGA,141349.90,6024.8336,N,3028.1957,E,2,19,0.1,72.0,M,0.0,M,1.0,0001*73,$GPRMC,141349.90,A,6024.8336,N,3028.1957,E,9.7,0.0,011020,10.5,E,A*33
$GPGGA,141350.18,6024.8336,N,3028.1957,E,2,19,0.1,72.0,M,0.0,M,1.0,0001*7b,$GPRMC,141350.18,A,6024.8336,N,3028.1957,E,9.7,0.0,011020,10.5,E,A*3b
$GPGGA,141350.50,6024.8336,N,3028.1957,E,2,19,0.1,72.0,M,0.0,M,1.0,0001*77,$GPRMC,141350.50,A,6024.8336,N,3028.1957,E,9.7,135.0,011020,10.5,E,A*30
$GPGGA,141350.78,6024.8336,N,3028.1957,E,2,19,0.1,72.0,M,0.0,M,1.0,0001*7d,$GPRMC,141350.78,A,6024.8336,N,3028.1957,E,9.7,180.0,011020,10.5,E,A*34
$GPGGA,141351.10,6024.8336,N,3028.1957,E,2,19,0.1,72.0,M,0.0,M,1.0,0001*72,$GPRMC,141351.10,A,6024.8336,N,3028.1957,E,9.7,0.0,011020,10.5,E,A*32
$GPGGA,141351.38,6024.8336,N,3028.1957,E,2,19,0.1,72.0,M,0.0,M,1.0,0001*78,$GPRMC,141351.38,A,6024.8336,N,3028.1957,E,9.7,180.0,011020,10.5,E,A*31
$GPGGA,141351.70,6024.8336,N,3028.1957,E,2,19,0.1,72.0,M,0.0,M,1.0,0001*74,$GPRMC,141351.70,A,6024.8336,N,3028.1957,E,9.7,90.0,011020,10.5,E,A*0d
$GPGGA,141351.98,6024.8336,N,3028.1957,E,2,19,0.1,72.0,M,0.0,M,1.0,0001*72,$GPRMC,141351.98,A,6024.8336,N,3028.1957,E,9.7,0.0,011020,10.5,E,A*32
$GPGGA,141352.30,6024.8336,N,3028.1957,E,2,19,0.1,72.0,M,0.0,M,1.0,0001*73,$GPRMC,141352.30,A,6024.8336,N,3028.1957,E,9.7,0.0,011020,10.5,E,A*33
$GPGGA,141352.58,6024.8336,N,3028.1957,E,2,19,0.1,72.0,M,0.0,M,1.0,0001*7d,$GPRMC,141352.58,A,6024.8336,N,3028.1957,E,9.7,0.0,011020,10.5,E,A*3d
$GPGGA,141352.90,6024.8336,N,3028.1957,E,2,19,0.1,72.0,M,0.0,M,1.0,0001*79,$GPRMC,141352.90,A,6024.8336,N,3028.1957,E,9.7,0.0,011020,10.5,E,A*39
$GPGGA,141353.18,6024.8336,N,3028.1957,E,2,19,0.1,72.0,M,0.0,M,1.0,0001*78,$GPRMC,141353.18,A,6024.8336,N,3028.1957,E,9.7,-45.0,011020,10.5,E,A*24
$GPGGA,141353.50,6024.8336,N,3028.1957,E,2,19,0.1,72.0,M,0.0,M,1.0,0001*74,$GPRMC,141353.50,A,6024.8336,N,3028.1957,E,9.7,0.0,011020,10.5,E,A*34
$GPGGA,141353.78,6024.8336,N,3028.1957,E,2,19,0.1,72.0,M,0.0,M,1.0,0001*7e,$GPRMC,141353.78,A,6024.8336,N,3028.1957,E,9.7,0.0,011020,10.5,E,A*3e
$GPGGA,141354.06,6024.8336,N,3028.1957,E,2,19,0.1,72.0,M,0.0,M,1.0,0001*70,$GPRMC,141354.06,A,6024.8336,N,3028.1957,E,9.7,0.0,011020,10.5,E,A*30
$GPGGA,141354.39,6024.8336,N,3028.1957,E,2,19,0.1,72.0,M,0.0,M,1.0,0001*7c,$GPRMC,141354.39,A,6024.8336,N,3028.1957,E,9.7,0.0,011020,10.5,E,A*3c
$GPGGA,141354.66,6024.8336,N,3028.1957,E,2,19,0.1,72.0,M,0.0,M,1.0,0001*76,$GPRMC,141354.66,A,6024.8336,N,3028.1957,E,9.7,0.0,011020,10.5,E,A*36
$GPGGA,141354.98,6024.8336,N,3028.1957,E,2,19,0.1,72.0,M,0.0,M,1.0,0001*77,$GPRMC,141354.98,A,6024.8336,N,3028.1957,E,9.7,0.0,011020,10.5,E,A*37
$GPGGA,141355.26,6024.8335,N,3028.1957,E,2,19,0.1,72.0,M,0.0,M,1.0,0001*70,$GPRMC,141355.26,A,6024.8335,N,3028.1957,E,9.7,0.0,011020,10.5,E,A*30
$GPGGA,141355.58,6024.8335,N,3028.1957,E,2,19,0.1,72.0,M,0.0,M,1.0,0001*79,$GPRMC,141355.58,A,6024.8335,N,3028.1957,E,9.7,0.0,011020,10.5,E,A*39
$GPGGA,141355.86,6024.8335,N,3028.1957,E,2,19,0.1,72.0,M,0.0,M,1.0,0001*7a,$GPRMC,141355.86,A,6024.8335,N,3028.1957,E,9.7,0.0,011020,10.5,E,A*3a
$GPGGA,141356.18,6024.8335,N,3028.1957,E,2,19,0.1,72.0,M,0.0,M,1.0,0001*7e,$GPRMC,141356.18,A,6024.8335,N,3028.1957,E,9.7,45.0,011020,10.5,E,A*0f
$GPGGA,141356.46,6024.8335,N,3028.1957,E,2,19,0.1,72.0,M,0.0,M,1.0,0001*75,$GPRMC,141356.46,A,6024.8335,N,3028.1957,E,9.7,0.0,011020,10.5,E,A*35
$GPGGA,141356.78,6024.8335,N,3028.1957,E,2,19,0.1,72.0,M,0.0,M,1.0,0001*78,$GPRMC,141356.78,A,6024.8335,N,3028.1957,E,9.7,0.0,011020,10.5,E,A*38
$GPGGA,141357.06,6024.8335,N,3028.1957,E,2,19,0.1,72.0,M,0.0,M,1.0,0001*70,$GPRMC,141357.06,A,6024.8335,N,3028.1957,E,9.7,90.0,011020,10.5,E,A*09
$GPGGA,141357.38,6024.8335,N,3028.1957,E,2,19,0.1,72.0,M,0.0,M,1.0,0001*7d,$GPRMC,141357.38,A,6024.8335,N,3028.1957,E,9.7,0.0,011020,10.5,E,A*3d
$GPGGA,141357.67,6024.8335,N,3028.1957,E,2,20,0.1,72.0,M,0.0,M,1.0,0001*7d,$GPRMC,141357.67,A,6024.8335,N,3028.1957,E,9.7,-90.0,011020,10.5,E,A*23
$GPGGA,141357.98,6024.8335,N,3028.1957,E,2,20,0.1,72.0,M,0.0,M,1.0,0001*7d,$GPRMC,141357.98,A,6024.8335,N,3028.1957,E,9.7,0.0,011020,10.5,E,A*37
$GPGGA,141358.26,6024.8335,N,3028.1957,E,2,20,0.1,72.0,M,0.0,M,1.0,0001*77,$GPRMC,141358.26,A,6024.8335,N,3028.1957,E,9.7,-90.0,011020,10.5,E,A*29
$GPGGA,141358.58,6024.8335,N,3028.1957,E,2,20,0.1,72.0,M,0.0,M,1.0,0001*7e,$GPRMC,141358.58,A,6024.8335,N,3028.1957,E,9.7,0.0,011020,10.5,E,A*34
$GPGGA,141358.86,6024.8335,N,3028.1957,E,2,20,0.1,72.0,M,0.0,M,1.0,0001*7d,$GPRMC,141358.86,A,6024.8335,N,3028.1957,E,9.7,-90.0,011020,10.5,E,A*23
$GPGGA,141359.18,6024.8335,N,3028.1957,E,2,20,0.1,72.0,M,0.0,M,1.0,0001*7b,$GPRMC,141359.18,A,6024.8335,N,3028.1957,E,9.7,0.0,011020,10.5,E,A*31
$GPGGA,141359.46,6024.8335,N,3028.1957,E,2,20,0.1,72.0,M,0.0,M,1.0,0001*70,$GPRMC,141359.46,A,6024.8335,N,3028.1957,E,9.7,-90.0,011020,10.5,E,A*2e
$GPGGA,141359.79,6024.8335,N,3028.1957,E,2,20,0.1,71.0,M,0.0,M,1.0,0001*7f,$GPRMC,141359.79,A,6024.8335,N,3028.1957,E,9.7,0.0,011020,10.5,E,A*36
$GPGGA,141400.06,6024.8335,N,3028.1957,E,2,20,0.1,71.0,M,0.0,M,1.0,0001*7c,$GPRMC,141400.06,A,6024.8335,N,3028.1957,E,9.7,-90.0,011020,10.5,E,A*21
$GPGGA,141400.38,6024.8335,N,3028.1957,E,2,20,0.1,71.0,M,0.0,M,1.0,0001*71,$GPRMC,141400.38,A,6024.8335,N,3028.1957,E,9.7,90.0,011020,10.5,E,A*01
$GPGGA,141400.67,6024.8335,N,3028.1957,E,2,20,0.1,71.0,M,0.0,M,1.0,0001*7b,$GPRMC,141400.67,A,6024.8335,N,3028.1957,E,9.7,0.0,011020,10.5,E,A*32
$GPGGA,141400.98,6024.8335,N,3028.1957,E,2,20,0.1,71.0,M,0.0,M,1.0,0001*7b,$GPRMC,141400.98,A,6024.8335,N,3028.1957,E,9.7,-90.0,011020,10.5,E,A*26
$GPGGA,141401.26,6024.8335,N,3028.1957,E,2,20,0.1,71.0,M,0.0,M,1.0,0001*7f,$GPRMC,141401.26,A,6024.8335,N,3028.1957,E,9.7,0.0,011020,10.5,E,A*36
$GPGGA,141401.54,6024.8335,N,3028.1957,E,2,20,0.1,71.0,M,0.0,M,1.0,0001*7a,$GPRMC,141401.54,A,6024.8335,N,3028.1957,E,9.7,90.0,011020,10.5,E,A*0a
$GPGGA,141401.86,6024.8335,N,3028.1957,E,2,20,0.1,71.0,M,0.0,M,1.0,0001*75,$GPRMC,141401.86,A,6024.8335,N,3028.1957,E,9.7,-90.0,011020,10.5,E,A*28
$GPGGA,141402.19,6024.8335,N,3028.1957,E,2,20,0.1,71.0,M,0.0,M,1.0,0001*70,$GPRMC,141402.19,A,6024.8335,N,3028.1957,E,9.7,45.0,011020,10.5,E,A*08
$GPGGA,141402.46,6024.8334,N,3028.1957,E,2,20,0.1,71.0,M,0.0,M,1.0,0001*7b,$GPRMC,141402.46,A,6024.8334,N,3028.1957,E,9.7,0.0,011020,10.5,E,A*32
$GPGGA,141402.75,6024.8334,N,3028.1957,E,2,20,0.1,71.0,M,0.0,M,1.0,0001*7b,$GPRMC,141402.75,A,6024.8334,N,3028.1957,E,9.7,90.0,011020,10.5,E,A*0b
$GPGGA,141403.06,6024.8334,N,3028.1957,E,2,20,0.1,71.0,M,0.0,M,1.0,0001*7e,$GPRMC,141403.06,A,6024.8334,N,3028.1957,E,9.7,0.0,011020,10.5,E,A*37
$GPGGA,141403.34,6024.8334,N,3028.1956,E,2,20,0.1,71.0,M,0.0,M,1.0,0001*7e,$GPRMC,141403.34,A,6024.8334,N,3028.1956,E,9.7,0.0,011020,10.5,E,A*37
$GPGGA,141403.66,6024.8334,N,3028.1956,E,2,20,0.1,71.0,M,0.0,M,1.0,0001*79,$GPRMC,141403.66,A,6024.8334,N,3028.1956,E,9.7,90.0,011020,10.5,E,A*09
$GPGGA,141403.94,6024.8334,N,3028.1956,E,2,20,0.1,71.0,M,0.0,M,1.0,0001*74,$GPRMC,141403.94,A,6024.8334,N,3028.1956,E,9.7,0.0,011020,10.5,E,A*3d
$GPGGA,141404.26,6024.8334,N,3028.1956,E,2,20,0.1,71.0,M,0.0,M,1.0,0001*7a,$GPRMC,141404.26,A,6024.8334,N,3028.1956,E,9.7,90.0,011020,10.5,E,A*0a
$GPGGA,141404.54,6024.8334,N,3028.1956,E,2,20,0.1,71.0,M,0.0,M,1.0,0001*7f,$GPRMC,141404.54,A,6024.8334,N,3028.1956,E,9.7,90.0,011020,10.5,E,A*0f
$GPGGA,141404.86,6024.8334,N,3028.1956,E,2,20,0.1,71.0,M,0.0,M,1.0,0001*70,$GPRMC,141404.86,A,6024.8334,N,3028.1956,E,9.7,0.0,011020,10.5,E,A*39
$GPGGA,141405.18,6024.8334,N,3028.1956,E,2,20,0.1,71.0,M,0.0,M,1.0,0001*76,$GPRMC,141405.18,A,6024.8334,N,3028.1956,E,9.7,0.0,011020,10.5,E,A*3f
$GPGGA,141405.46,6024.8334,N,3028.1956,E,2,20,0.1,71.0,M,0.0,M,1.0,0001*7d,$GPRMC,141405.46,A,6024.8334,N,3028.1956,E,9.7,0.0,011020,10.5,E,A*34
$GPGGA,141405.75,6024.8334,N,3028.1956,E,2,19,0.1,71.0,M,0.0,M,1.0,0001*77,$GPRMC,141405.75,A,6024.8334,N,3028.1956,E,9.7,-90.0,011020,10.5,E,A*20
$GPGGA,141406.06,6024.8334,N,3028.1956,E,2,19,0.1,71.0,M,0.0,M,1.0,0001*70,$GPRMC,141406.06,A,6024.8334,N,3028.1956,E,9.7,90.0,011020,10.5,E,A*0a
$GPGGA,141406.34,6024.8334,N,3028.1956,E,2,19,0.1,71.0,M,0.0,M,1.0,0001*71,$GPRMC,141406.34,A,6024.8334,N,3028.1956,E,9.7,0.0,011020,10.5,E,A*32
$GPGGA,141406.67,6024.8334,N,3028.1956,E,2,19,0.1,71.0,M,0.0,M,1.0,0001*77,$GPRMC,141406.67,A,6024.8334,N,3028.1956,E,9.7,180.0,011020,10.5,E,A*3d
$GPGGA,141406.95,6024.8333,N,3028.1956,E,2,19,0.1,71.0,M,0.0,M,1.0,0001*7d,$GPRMC,141406.95,A,6024.8333,N,3028.1956,E,9.7,0.0,011020,10.5,E,A*3e
$GPGGA,141407.27,6024.8333,N,3028.1956,E,2,19,0.1,71.0,M,0.0,M,1.0,0001*75,$GPRMC,141407.27,A,6024.8333,N,3028.1956,E,9.7,0.0,011020,10.5,E,A*36
$GPGGA,141407.55,6024.8333,N,3028.1956,E,2,20,0.1,71.0,M,0.0,M,1.0,0001*7a,$GPRMC,141407.55,A,6024.8333,N,3028.1956,E,9.7,180.0,011020,10.5,E,A*3a
$GPGGA,141407.86,6024.8333,N,3028.1956,E,2,20,0.1,71.0,M,0.0,M,1.0,0001*74,$GPRMC,141407.86,A,6024.8333,N,3028.1956,E,9.7,0.0,011020,10.5,E,A*3d
$GPGGA,141408.18,6024.8333,N,3028.1956,E,2,20,0.1,71.0,M,0.0,M,1.0,0001*7c,$GPRMC,141408.18,A,6024.8333,N,3028.1956,E,9.7,0.0,011020,10.5,E,A*35
$GPGGA,141408.47,6024.8333,N,3028.1956,E,2,20,0.1,71.0,M,0.0,M,1.0,0001*76,$GPRMC,141408.47,A,6024.8333,N,3028.1956,E,9.7,0.0,011020,10.5,E,A*3f
$GPGGA,141408.75,6024.8333,N,3028.1956,E,2,20,0.1,71.0,M,0.0,M,1.0,0001*77,$GPRMC,141408.75,A,6024.8333,N,3028.1956,E,9.7,-90.0,011020,10.5,E,A*2a
$GPGGA,141409.03,6024.8333,N,3028.1956,E,2,20,0.1,71.0,M,0.0,M,1.0,0001*77,$GPRMC,141409.03,A,6024.8333,N,3028.1956,E,9.7,116.0,011020,10.5,E,A*38
$GPGGA,141409.34,6024.8333,N,3028.1956,E,2,20,0.1,71.0,M,0.0,M,1.0,0001*73,$GPRMC,141409.34,A,6024.8333,N,3028.1956,E,9.7,0.0,011020,10.5,E,A*3a
$GPGGA,141409.62,6024.8333,N,3028.1956,E,2,20,0.1,71.0,M,0.0,M,1.0,0001*70,$GPRMC,141409.62,A,6024.8333,N,3028.1956,E,9.7,-45.0,011020,10.5,E,A*25
$GPGGA,141409.95,6024.8333,N,3028.1956,E,2,20,0.1,71.0,M,0.0,M,1.0,0001*78,$GPRMC,141409.95,A,6024.8333,N,3028.1956,E,9.7,90.0,011020,10.5,E,A*08
$GPGGA,141410.23,6024.8333,N,3028.1956,E,2,20,0.1,71.0,M,0.0,M,1.0,0001*7d,$GPRMC,141410.23,A,6024.8333,N,3028.1956,E,9.7,-63.0,011020,10.5,E,A*2c
$GPGGA,141410.55,6024.8333,N,3028.1956,E,2,20,0.1,71.0,M,0.0,M,1.0,0001*7c,$GPRMC,141410.55,A,6024.8333,N,3028.1956,E,9.7,0.0,011020,10.5,E,A*35
$GPGGA,141410.82,6024.8333,N,3028.1956,E,2,20,0.1,71.0,M,0.0,M,1.0,0001*76,$GPRMC,141410.82,A,6024.8333,N,3028.1956,E,9.7,-45.0,011020,10.5,E,A*23
$GPGGA,141411.18,6024.8333,N,3028.1956,E,2,20,0.1,71.0,M,0.0,M,1.0,0001*74,$GPRMC,141411.18,A,6024.8333,N,3028.1956,E,9.7,-116.0,011020,10.5,E,A*16
$GPGGA,141411.42,6024.8333,N,3028.1956,E,2,20,0.1,71.0,M,0.0,M,1.0,0001*7b,$GPRMC,141411.42,A,6024.8333,N,3028.1956,E,9.7,78.0,011020,10.5,E,A*0d
$GPGGA,141411.75,6024.8333,N,3028.1956,E,2,20,0.1,71.0,M,0.0,M,1.0,0001*7f,$GPRMC,141411.75,A,6024.8333,N,3028.1956,E,9.7,123.0,011020,10.5,E,A*36
$GPGGA,141412.02,6024.8332,N,3028.1956,E,2,18,0.1,71.0,M,0.0,M,1.0,0001*76,$GPRMC,141412.02,A,6024.8332,N,3028.1956,E,9.7,180.0,011020,10.5,E,A*3d
$GPGGA,141412.34,6024.8332,N,3028.1956,E,2,18,0.1,71.0,M,0.0,M,1.0,0001*73,$GPRMC,141412.34,A,6024.8332,N,3028.1956,E,9.7,180.0,011020,10.5,E,A*38
$GPGGA,141412.62,6024.8332,N,3028.1956,E,2,18,0.1,71.0,M,0.0,M,1.0,0001*70,$GPRMC,141412.62,A,6024.8332,N,3028.1956,E,9.7,-26.0,011020,10.5,E,A*2b
$GPGGA,141412.95,6024.8332,N,3028.1957,E,2,19,0.1,71.0,M,0.0,M,1.0,0001*78,$GPRMC,141412.95,A,6024.8332,N,3028.1957,E,9.7,157.0,011020,10.5,E,A*38
$GPGGA,141413.23,6024.8332,N,3028.1957,E,2,19,0.1,71.0,M,0.0,M,1.0,0001*74,$GPRMC,141413.23,A,6024.8332,N,3028.1957,E,9.7,173.0,011020,10.5,E,A*32
$GPGGA,141413.54,6024.8331,N,3028.1957,E,2,19,0.1,71.0,M,0.0,M,1.0,0001*77,$GPRMC,141413.54,A,6024.8331,N,3028.1957,E,9.7,-167.0,011020,10.5,E,A*19
$GPGGA,141413.82,6024.8331,N,3028.1957,E,2,19,0.1,72.0,M,0.0,M,1.0,0001*7f,$GPRMC,141413.82,A,6024.8331,N,3028.1957,E,9.7,-171.0,011020,10.5,E,A*15
$GPGGA,141414.18,6024.8331,N,3028.1957,E,2,19,0.1,72.0,M,0.0,M,1.0,0001*7b,$GPRMC,141414.18,A,6024.8331,N,3028.1957,E,9.7,82.0,011020,10.5,E,A*01
$GPGGA,141414.43,6024.8331,N,3028.1957,E,2,19,0.1,72.0,M,0.0,M,1.0,0001*75,$GPRMC,141414.43,A,6024.8331,N,3028.1957,E,9.7,110.0,011020,10.5,E,A*35
$GPGGA,141414.75,6024.8332,N,3028.1958,E,2,19,0.1,72.0,M,0.0,M,1.0,0001*7c,$GPRMC,141414.75,A,6024.8332,N,3028.1958,E,9.7,3.0,011020,10.5,E,A*3f
$GPGGA,141415.03,6024.8332,N,3028.1958,E,2,19,0.1,72.0,M,0.0,M,1.0,0001*7c,$GPRMC,141415.03,A,6024.8332,N,3028.1958,E,9.7,23.0,011020,10.5,E,A*0d
$GPGGA,141415.35,6024.8332,N,3028.1958,E,2,19,0.1,72.0,M,0.0,M,1.0,0001*79,$GPRMC,141415.35,A,6024.8332,N,3028.1958,E,9.7,53.0,011020,10.5,E,A*0f
$GPGGA,141415.62,6024.8332,N,3028.1958,E,2,19,0.1,72.0,M,0.0,M,1.0,0001*7b,$GPRMC,141415.62,A,6024.8332,N,3028.1958,E,9.7,-63.0,011020,10.5,E,A*23
$GPGGA,141415.94,6024.8332,N,3028.1956,E,2,19,0.1,72.0,M,0.0,M,1.0,0001*7c,$GPRMC,141415.94,A,6024.8332,N,3028.1956,E,9.7,-95.0,011020,10.5,E,A*2d
$GPGGA,141416.23,6024.8331,N,3028.1955,E,2,19,0.1,72.0,M,0.0,M,1.0,0001*73,$GPRMC,141416.23,A,6024.8331,N,3028.1955,E,9.7,-92.0,011020,10.5,E,A*25
$GPGGA,141416.50,6024.8331,N,3028.1954,E,2,21,0.1,72.0,M,0.0,M,1.0,0001*7d,$GPRMC,141416.50,A,6024.8331,N,3028.1954,E,9.7,-107.0,011020,10.5,E,A*1d
$GPGGA,141416.82,6024.8331,N,3028.1954,E,2,21,0.1,72.0,M,0.0,M,1.0,0001*72,$GPRMC,141416.82,A,6024.8331,N,3028.1954,E,9.7,-111.0,011020,10.5,E,A*15
$GPGGA,141417.11,6024.8331,N,3028.1954,E,2,21,0.1,72.0,M,0.0,M,1.0,0001*79,$GPRMC,141417.11,A,6024.8331,N,3028.1954,E,9.7,-104.0,011020,10.5,E,A*1a
$GPGGA,141417.42,6024.8331,N,3028.1954,E,2,19,0.1,72.0,M,0.0,M,1.0,0001*74,$GPRMC,141417.42,A,6024.8331,N,3028.1954,E,9.7,-113.0,011020,10.5,E,A*1a
$GPGGA,141417.70,6024.8330,N,3028.1955,E,2,19,0.1,72.0,M,0.0,M,1.0,0001*75,$GPRMC,141417.70,A,6024.8330,N,3028.1955,E,9.7,-123.0,011020,10.5,E,A*18
$GPGGA,141418.02,6024.8330,N,3028.1955,E,2,19,0.1,72.0,M,0.0,M,1.0,0001*7f,$GPRMC,141418.02,A,6024.8330,N,3028.1955,E,9.7,-135.0,011020,10.5,E,A*15
$GPGGA,141418.31,6024.8329,N,3028.1956,E,2,20,0.1,72.0,M,0.0,M,1.0,0001*7e,$GPRMC,141418.31,A,6024.8329,N,3028.1956,E,9.7,-169.0,011020,10.5,E,A*17
$GPGGA,141418.63,6024.8329,N,3028.1955,E,2,20,0.1,72.0,M,0.0,M,1.0,0001*7a,$GPRMC,141418.63,A,6024.8329,N,3028.1955,E,9.7,-176.0,011020,10.5,E,A*1d
$GPGGA,141418.90,6024.8328,N,3028.1955,E,2,20,0.1,72.0,M,0.0,M,1.0,0001*77,$GPRMC,141418.90,A,6024.8328,N,3028.1955,E,9.7,169.0,011020,10.5,E,A*33
$GPGGA,141419.22,6024.8328,N,3028.1956,E,2,20,0.1,72.0,M,0.0,M,1.0,0001*7c,$GPRMC,141419.22,A,6024.8328,N,3028.1956,E,9.7,175.0,011020,10.5,E,A*35
$GPGGA,141419.50,6024.8328,N,3028.1956,E,2,20,0.1,72.0,M,0.0,M,1.0,0001*79,$GPRMC,141419.50,A,6024.8328,N,3028.1956,E,9.7,173.0,011020,10.5,E,A*36
$GPGGA,141419.83,6024.8328,N,3028.1956,E,2,20,0.1,72.0,M,0.0,M,1.0,0001*77,$GPRMC,141419.83,A,6024.8328,N,3028.1956,E,9.7,169.0,011020,10.5,E,A*33
$GPGGA,141420.10,6024.8328,N,3028.1956,E,2,20,0.1,72.0,M,0.0,M,1.0,0001*77,$GPRMC,141420.10,A,6024.8328,N,3028.1956,E,9.7,169.0,011020,10.5,E,A*33
$GPGGA,141420.42,6024.8328,N,3028.1957,E,2,20,0.1,72.0,M,0.0,M,1.0,0001*71,$GPRMC,141420.42,A,6024.8328,N,3028.1957,E,9.7,149.0,011020,10.5,E,A*37
$GPGGA,141420.71,6024.8328,N,3028.1956,E,2,20,0.1,72.0,M,0.0,M,1.0,0001*70,$GPRMC,141420.71,A,6024.8328,N,3028.1956,E,9.7,71.0,011020,10.5,E,A*0c
$GPGGA,141421.03,6024.8328,N,3028.1957,E,2,19,0.1,72.0,M,0.0,M,1.0,0001*7f,$GPRMC,141421.03,A,6024.8328,N,3028.1957,E,9.7,112.0,011020,10.5,E,A*3d
$GPGGA,141421.31,6024.8328,N,3028.1958,E,2,19,0.1,72.0,M,0.0,M,1.0,0001*71,$GPRMC,141421.31,A,6024.8328,N,3028.1958,E,9.7,110.0,011020,10.5,E,A*31
$GPGGA,141421.63,6024.8328,N,3028.1959,E,2,19,0.1,72.0,M,0.0,M,1.0,0001*77,$GPRMC,141421.63,A,6024.8328,N,3028.1959,E,9.7,97.0,011020,10.5,E,A*09
$GPGGA,141421.91,6024.8328,N,3028.1959,E,2,21,0.1,72.0,M,0.0,M,1.0,0001*71,$GPRMC,141421.91,A,6024.8328,N,3028.1959,E,9.7,110.0,011020,10.5,E,A*3a
$GPGGA,141422.23,6024.8328,N,3028.1959,E,2,21,0.1,72.0,M,0.0,M,1.0,0001*7b,$GPRMC,141422.23,A,6024.8328,N,3028.1959,E,9.7,146.0,011020,10.5,E,A*33
$GPGGA,141422.50,6024.8328,N,3028.1958,E,2,21,0.1,72.0,M,0.0,M,1.0,0001*7e,$GPRMC,141422.50,A,6024.8328,N,3028.1958,E,9.7,180.0,011020,10.5,E,A*3c
$GPGGA,141422.82,6024.8329,N,3028.1958,E,2,21,0.1,72.0,M,0.0,M,1.0,0001*70,$GPRMC,141422.82,A,6024.8329,N,3028.1958,E,9.7,66.0,011020,10.5,E,A*0b
$GPGGA,141423.11,6024.8329,N,3028.1959,E,2,21,0.1,72.0,M,0.0,M,1.0,0001*7a,$GPRMC,141423.11,A,6024.8329,N,3028.1959,E,9.7,54.0,011020,10.5,E,A*00
$GPGGA,141423.43,6024.8330,N,3028.1960,E,2,21,0.1,72.0,M,0.0,M,1.0,0001*7f,$GPRMC,141423.43,A,6024.8330,N,3028.1960,E,9.7,56.0,011020,10.5,E,A*07
$GPGGA,141423.70,6024.8329,N,3028.1960,E,2,20,0.1,72.0,M,0.0,M,1.0,0001*76,$GPRMC,141423.70,A,6024.8329,N,3028.1960,E,9.7,37.0,011020,10.5,E,A*08
$GPGGA,141424.02,6024.8329,N,3028.1960,E,2,20,0.1,72.0,M,0.0,M,1.0,0001*74,$GPRMC,141424.02,A,6024.8329,N,3028.1960,E,9.7,32.0,011020,10.5,E,A*0f
$GPGGA,141424.31,6024.8329,N,3028.1960,E,2,20,0.1,72.0,M,0.0,M,1.0,0001*74,$GPRMC,141424.31,A,6024.8329,N,3028.1960,E,9.7,59.0,011020,10.5,E,A*02
$GPGGA,141424.58,6024.8329,N,3028.1960,E,2,20,0.1,72.0,M,0.0,M,1.0,0001*7b,$GPRMC,141424.58,A,6024.8329,N,3028.1960,E,9.7,26.0,011020,10.5,E,A*05
$GPGGA,141424.90,6024.8329,N,3028.1959,E,2,20,0.1,72.0,M,0.0,M,1.0,0001*75,$GPRMC,141424.90,A,6024.8329,N,3028.1959,E,9.7,14.0,011020,10.5,E,A*0a
$GPGGA,141425.18,6024.8329,N,3028.1959,E,2,20,0.1,72.0,M,0.0,M,1.0,0001*74,$GPRMC,141425.18,A,6024.8329,N,3028.1959,E,9.7,-21.0,011020,10.5,E,A*20
$GPGGA,141425.50,6024.8330,N,3028.1959,E,2,20,0.1,72.0,M,0.0,M,1.0,0001*70,$GPRMC,141425.50,A,6024.8330,N,3028.1959,E,9.7,-26.0,011020,10.5,E,A*23
$GPGGA,141425.78,6024.8330,N,3028.1958,E,2,20,0.1,72.0,M,0.0,M,1.0,0001*7b,$GPRMC,141425.78,A,6024.8330,N,3028.1958,E,9.7,-23.0,011020,10.5,E,A*2d
$GPGGA,141426.11,6024.8330,N,3028.1958,E,2,20,0.1,72.0,M,0.0,M,1.0,0001*77,$GPRMC,141426.11,A,6024.8330,N,3028.1958,E,9.7,-23.0,011020,10.5,E,A*21
$GPGGA,141426.39,6024.8330,N,3028.1957,E,2,20,0.1,72.0,M,0.0,M,1.0,0001*72,$GPRMC,141426.39,A,6024.8330,N,3028.1957,E,9.7,-31.0,011020,10.5,E,A*27
$GPGGA,141426.70,6024.8330,N,3028.1957,E,2,20,0.1,72.0,M,0.0,M,1.0,0001*7f,$GPRMC,141426.70,A,6024.8330,N,3028.1957,E,9.7,-39.0,011020,10.5,E,A*22
$GPGGA,141426.98,6024.8330,N,3028.1957,E,2,20,0.1,72.0,M,0.0,M,1.0,0001*79,$GPRMC,141426.98,A,6024.8330,N,3028.1957,E,9.7,-35.0,011020,10.5,E,A*28
$GPGGA,141427.31,6024.8330,N,3028.1957,E,2,21,0.1,72.0,M,0.0,M,1.0,0001*7a,$GPRMC,141427.31,A,6024.8330,N,3028.1957,E,9.7,-18.0,011020,10.5,E,A*25
$GPGGA,141427.58,6024.8330,N,3028.1957,E,2,21,0.1,72.0,M,0.0,M,1.0,0001*75,$GPRMC,141427.58,A,6024.8330,N,3028.1957,E,9.7,-33.0,011020,10.5,E,A*23
$GPGGA,141427.91,6024.8330,N,3028.1957,E,2,21,0.1,72.0,M,0.0,M,1.0,0001*70,$GPRMC,141427.91,A,6024.8330,N,3028.1957,E,9.7,-116.0,011020,10.5,E,A*10
$GPGGA,141428.18,6024.8330,N,3028.1957,E,2,21,0.1,72.0,M,0.0,M,1.0,0001*7e,$GPRMC,141428.18,A,6024.8330,N,3028.1957,E,9.7,-90.0,011020,10.5,E,A*21
$GPGGA,141428.50,6024.8330,N,3028.1956,E,2,21,0.1,72.0,M,0.0,M,1.0,0001*73,$GPRMC,141428.50,A,6024.8330,N,3028.1956,E,9.7,-66.0,011020,10.5,E,A*25
$GPGGA,141428.78,6024.8330,N,3028.1955,E,2,21,0.1,72.0,M,0.0,M,1.0,0001*7a,$GPRMC,141428.78,A,6024.8330,N,3028.1955,E,9.7,-84.0,011020,10.5,E,A*20
$GPGGA,141429.11,6024.8330,N,3028.1955,E,2,20,0.1,72.0,M,0.0,M,1.0,0001*75,$GPRMC,141429.11,A,6024.8330,N,3028.1955,E,9.7,-94.0,011020,10.5,E,A*2f
$GPGGA,141429.39,6024.8330,N,3028.1954,E,2,20,0.1,72.0,M,0.0,M,1.0,0001*7e,$GPRMC,141429.39,A,6024.8330,N,3028.1954,E,9.7,-94.0,011020,10.5,E,A*24
$GPGGA,141429.70,6024.8330,N,3028.1954,E,2,20,0.1,72.0,M,0.0,M,1.0,0001*73,$GPRMC,141429.70,A,6024.8330,N,3028.1954,E,9.7,-54.0,011020,10.5,E,A*25
$GPGGA,141429.98,6024.8330,N,3028.1955,E,2,20,0.1,72.0,M,0.0,M,1.0,0001*74,$GPRMC,141429.98,A,6024.8330,N,3028.1955,E,9.7,-21.0,011020,10.5,E,A*20
$GPGGA,141430.31,6024.8330,N,3028.1955,E,2,20,0.1,72.0,M,0.0,M,1.0,0001*7f,$GPRMC,141430.31,A,6024.8330,N,3028.1955,E,9.7,-14.0,011020,10.5,E,A*2d
$GPGGA,141430.58,6024.8330,N,3028.1955,E,2,20,0.1,72.0,M,0.0,M,1.0,0001*70,$GPRMC,141430.58,A,6024.8330,N,3028.1955,E,9.7,0.0,011020,10.5,E,A*3a
$GPGGA,141430.90,6024.8330,N,3028.1955,E,2,20,0.1,72.0,M,0.0,M,1.0,0001*74,$GPRMC,141430.90,A,6024.8330,N,3028.1955,E,9.7,-33.0,011020,10.5,E,A*23
$GPGGA,141431.19,6024.8330,N,3028.1955,E,2,20,0.1,72.0,M,0.0,M,1.0,0001*74,$GPRMC,141431.19,A,6024.8330,N,3028.1955,E,9.7,-30.0,011020,10.5,E,A*20
$GPGGA,141431.50,6024.8330,N,3028.1955,E,2,20,0.1,72.0,M,0.0,M,1.0,0001*79,$GPRMC,141431.50,A,6024.8330,N,3028.1955,E,9.7,-18.0,011020,10.5,E,A*27
$GPGGA,141431.79,6024.8330,N,3028.1955,E,2,20,0.1,72.0,M,0.0,M,1.0,0001*72,$GPRMC,141431.79,A,6024.8330,N,3028.1955,E,9.7,-45.0,011020,10.5,E,A*24
$GPGGA,141432.07,6024.8330,N,3028.1955,E,2,20,0.1,72.0,M,0.0,M,1.0,0001*78,$GPRMC,141432.07,A,6024.8330,N,3028.1955,E,9.7,0.0,011020,10.5,E,A*32
$GPGGA,141432.38,6024.8330,N,3028.1954,E,2,20,0.1,72.0,M,0.0,M,1.0,0001*75,$GPRMC,141432.38,A,6024.8330,N,3028.1954,E,9.7,-12.0,011020,10.5,E,A*21
$GPGGA,141432.67,6024.8331,N,3028.1954,E,2,20,0.1,72.0,M,0.0,M,1.0,0001*7e,$GPRMC,141432.67,A,6024.8331,N,3028.1954,E,9.7,-21.0,011020,10.5,E,A*2a
$GPGGA,141432.98,6024.8331,N,3028.1954,E,2,20,0.1,72.0,M,0.0,M,1.0,0001*7e,$GPRMC,141432.98,A,6024.8331,N,3028.1954,E,9.7,-18.0,011020,10.5,E,A*20
$GPGGA,141433.26,6024.8331,N,3028.1954,E,2,20,0.1,72.0,M,0.0,M,1.0,0001*7a,$GPRMC,141433.26,A,6024.8331,N,3028.1954,E,9.7,-23.0,011020,10.5,E,A*2c
$GPGGA,141433.58,6024.8331,N,3028.1954,E,2,16,0.1,72.0,M,0.0,M,1.0,0001*76,$GPRMC,141433.58,A,6024.8331,N,3028.1954,E,9.7,-14.0,011020,10.5,E,A*21
$GPGGA,141433.86,6024.8331,N,3028.1954,E,2,16,0.1,72.0,M,0.0,M,1.0,0001*75,$GPRMC,141433.86,A,6024.8331,N,3028.1954,E,9.7,-45.0,011020,10.5,E,A*26
$GPGGA,141434.18,6024.8330,N,3028.1955,E,2,16,0.1,72.0,M,0.0,M,1.0,0001*75,$GPRMC,141434.18,A,6024.8330,N,3028.1955,E,9.7,-105.0,011020,10.5,E,A*13
$GPGGA,141434.46,6024.8330,N,3028.1954,E,2,19,0.1,72.0,M,0.0,M,1.0,0001*70,$GPRMC,141434.46,A,6024.8330,N,3028.1954,E,9.7,-131.0,011020,10.5,E,A*1e
$GPGGA,141434.78,6024.8330,N,3028.1954,E,2,19,0.1,72.0,M,0.0,M,1.0,0001*7d,$GPRMC,141434.78,A,6024.8330,N,3028.1954,E,9.7,-149.0,011020,10.5,E,A*1c
$GPGGA,141435.06,6024.8329,N,3028.1953,E,2,19,0.1,72.0,M,0.0,M,1.0,0001*7a,$GPRMC,141435.06,A,6024.8329,N,3028.1953,E,9.7,-141.0,011020,10.5,E,A*13
$GPGGA,141435.38,6024.8329,N,3028.1953,E,2,18,0.1,72.0,M,0.0,M,1.0,0001*76,$GPRMC,141435.38,A,6024.8329,N,3028.1953,E,9.7,-156.0,011020,10.5,E,A*18
$GPGGA,141435.67,6024.8329,N,3028.1952,E,2,18,0.1,72.0,M,0.0,M,1.0,0001*7d,$GPRMC,141435.67,A,6024.8329,N,3028.1952,E,9.7,-138.0,011020,10.5,E,A*1b
$GPGGA,141435.98,6024.8329,N,3028.1952,E,2,18,0.1,72.0,M,0.0,M,1.0,0001*7d,$GPRMC,141435.98,A,6024.8329,N,3028.1952,E,9.7,-155.0,011020,10.5,E,A*10
$GPGGA,141436.26,6024.8328,N,3028.1952,E,2,17,0.1,72.0,M,0.0,M,1.0,0001*75,$GPRMC,141436.26,A,6024.8328,N,3028.1952,E,9.7,-162.0,011020,10.5,E,A*13
$GPGGA,141436.58,6024.8327,N,3028.1953,E,2,17,0.1,72.0,M,0.0,M,1.0,0001*72,$GPRMC,141436.58,A,6024.8327,N,3028.1953,E,9.7,-174.0,011020,10.5,E,A*13
$GPGGA,141436.86,6024.8327,N,3028.1953,E,2,17,0.1,72.0,M,0.0,M,1.0,0001*71,$GPRMC,141436.86,A,6024.8327,N,3028.1953,E,9.7,180.0,011020,10.5,E,A*36
$GPGGA,141437.18,6024.8327,N,3028.1953,E,2,16,0.1,72.0,M,0.0,M,1.0,0001*76,$GPRMC,141437.18,A,6024.8327,N,3028.1953,E,9.7,157.0,011020,10.5,E,A*3a
$GPGGA,141437.46,6024.8327,N,3028.1954,E,2,16,0.1,72.0,M,0.0,M,1.0,0001*7a,$GPRMC,141437.46,A,6024.8327,N,3028.1954,E,9.7,152.0,011020,10.5,E,A*33
$GPGGA,141437.79,6024.8327,N,3028.1955,E,2,16,0.1,72.0,M,0.0,M,1.0,0001*77,$GPRMC,141437.79,A,6024.8327,N,3028.1955,E,9.7,136.0,011020,10.5,E,A*3c
$GPGGA,141438.07,6024.8327,N,3028.1955,E,2,17,0.1,72.0,M,0.0,M,1.0,0001*70,$GPRMC,141438.07,A,6024.8327,N,3028.1955,E,9.7,125.0,011020,10.5,E,A*38
$GPGGA,141438.38,6024.8327,N,3028.1955,E,2,17,0.1,72.0,M,0.0,M,1.0,0001*7c,$GPRMC,141438.38,A,6024.8327,N,3028.1955,E,9.7,122.0,011020,10.5,E,A*33
$GPGGA,141438.66,6024.8326,N,3028.1956,E,2,17,0.1,72.0,M,0.0,M,1.0,0001*75,$GPRMC,141438.66,A,6024.8326,N,3028.1956,E,9.7,120.0,011020,10.5,E,A*38
$GPGGA,141438.98,6024.8326,N,3028.1957,E,2,18,0.1,72.0,M,0.0,M,1.0,0001*7a,$GPRMC,141438.98,A,6024.8326,N,3028.1957,E,9.7,122.0,011020,10.5,E,A*3a
$GPGGA,141439.26,6024.8326,N,3028.1957,E,2,18,0.1,72.0,M,0.0,M,1.0,0001*7e,$GPRMC,141439.26,A,6024.8326,N,3028.1957,E,9.7,103.0,011020,10.5,E,A*3d
$GPGGA,141439.54,6024.8326,N,3028.1958,E,2,18,0.1,72.0,M,0.0,M,1.0,0001*74,$GPRMC,141439.54,A,6024.8326,N,3028.1958,E,9.7,90.0,011020,10.5,E,A*0c
$GPGGA,141439.86,6024.8326,N,3028.1958,E,2,18,0.1,72.0,M,0.0,M,1.0,0001*7b,$GPRMC,141439.86,A,6024.8326,N,3028.1958,E,9.7,87.0,011020,10.5,E,A*05
$GPGGA,141440.18,6024.8326,N,3028.1959,E,2,18,0.1,72.0,M,0.0,M,1.0,0001*73,$GPRMC,141440.18,A,6024.8326,N,3028.1959,E,9.7,72.0,011020,10.5,E,A*07
$GPGGA,141440.47,6024.8326,N,3028.1958,E,2,18,0.1,72.0,M,0.0,M,1.0,0001*78,$GPRMC,141440.47,A,6024.8326,N,3028.1958,E,9.7,72.0,011020,10.5,E,A*0c
$GPGGA,141440.75,6024.8327,N,3028.1959,E,2,17,0.1,72.0,M,0.0,M,1.0,0001*76,$GPRMC,141440.75,A,6024.8327,N,3028.1959,E,9.7,51.0,011020,10.5,E,A*0c
$GPGGA,141441.07,6024.8327,N,3028.1959,E,2,17,0.1,72.0,M,0.0,M,1.0,0001*72,$GPRMC,141441.07,A,6024.8327,N,3028.1959,E,9.7,36.0,011020,10.5,E,A*09
$GPGGA,141441.35,6024.8327,N,3028.1960,E,2,17,0.1,72.0,M,0.0,M,1.0,0001*79,$GPRMC,141441.35,A,6024.8327,N,3028.1960,E,9.7,30.0,011020,10.5,E,A*04
$GPGGA,141441.67,6024.8328,N,3028.1960,E,2,17,0.1,72.0,M,0.0,M,1.0,0001*71,$GPRMC,141441.67,A,6024.8328,N,3028.1960,E,9.7,32.0,011020,10.5,E,A*0e
$GPGGA,141441.94,6024.8328,N,3028.1960,E,2,17,0.1,72.0,M,0.0,M,1.0,0001*7d,$GPRMC,141441.94,A,6024.8328,N,3028.1960,E,9.7,27.0,011020,10.5,E,A*06
$GPGGA,141442.27,6024.8328,N,3028.1961,E,2,17,0.1,72.0,M,0.0,M,1.0,0001*77,$GPRMC,141442.27,A,6024.8328,N,3028.1961,E,9.7,27.0,011020,10.5,E,A*0c
$GPGGA,141442.54,6024.8329,N,3028.1961,E,2,18,0.1,72.0,M,0.0,M,1.0,0001*7d,$GPRMC,141442.54,A,6024.8329,N,3028.1961,E,9.7,15.0,011020,10.5,E,A*08
$GPGGA,141442.86,6024.8329,N,3028.1960,E,2,18,0.1,72.0,M,0.0,M,1.0,0001*73,$GPRMC,141442.86,A,6024.8329,N,3028.1960,E,9.7,5.0,011020,10.5,E,A*37
$GPGGA,141443.15,6024.8329,N,3028.1960,E,2,18,0.1,72.0,M,0.0,M,1.0,0001*78,$GPRMC,141443.15,A,6024.8329,N,3028.1960,E,9.7,-11.0,011020,10.5,E,A*24
$GPGGA,141443.47,6024.8329,N,3028.1959,E,2,17,0.1,72.0,M,0.0,M,1.0,0001*7a,$GPRMC,141443.47,A,6024.8329,N,3028.1959,E,9.7,-26.0,011020,10.5,E,A*2d
$GPGGA,141443.75,6024.8330,N,3028.1959,E,2,17,0.1,72.0,M,0.0,M,1.0,0001*73,$GPRMC,141443.75,A,6024.8330,N,3028.1959,E,9.7,-35.0,011020,10.5,E,A*26
$GPGGA,141444.06,6024.8330,N,3028.1958,E,2,17,0.1,72.0,M,0.0,M,1.0,0001*71,$GPRMC,141444.06,A,6024.8330,N,3028.1958,E,9.7,-42.0,011020,10.5,E,A*24
$GPGGA,141444.35,6024.8330,N,3028.1958,E,2,16,0.1,72.0,M,0.0,M,1.0,0001*70,$GPRMC,141444.35,A,6024.8330,N,3028.1958,E,9.7,-48.0,011020,10.5,E,A*2e
$GPGGA,141444.66,6024.8330,N,3028.1957,E,2,16,0.1,72.0,M,0.0,M,1.0,0001*79,$GPRMC,141444.66,A,6024.8330,N,3028.1957,E,9.7,-54.0,011020,10.5,E,A*2a
$GPGGA,141444.94,6024.8330,N,3028.1957,E,2,16,0.1,72.0,M,0.0,M,1.0,0001*74,$GPRMC,141444.94,A,6024.8330,N,3028.1957,E,9.7,-57.0,011020,10.5,E,A*24
$GPGGA,141445.27,6024.8330,N,3028.1957,E,2,16,0.1,71.0,M,0.0,M,1.0,0001*7e,$GPRMC,141445.27,A,6024.8330,N,3028.1957,E,9.7,-67.0,011020,10.5,E,A*2e
$GPGGA,141445.55,6024.8330,N,3028.1956,E,2,16,0.1,71.0,M,0.0,M,1.0,0001*7a,$GPRMC,141445.55,A,6024.8330,N,3028.1956,E,9.7,-78.0,011020,10.5,E,A*24
$GPGGA,141445.87,6024.8330,N,3028.1956,E,2,16,0.1,71.0,M,0.0,M,1.0,0001*75,$GPRMC,141445.87,A,6024.8330,N,3028.1956,E,9.7,-84.0,011020,10.5,E,A*28
$GPGGA,141446.14,6024.8330,N,3028.1955,E,2,17,0.1,71.0,M,0.0,M,1.0,0001*7e,$GPRMC,141446.14,A,6024.8330,N,3028.1955,E,9.7,-81.0,011020,10.5,E,A*27
$GPGGA,141446.46,6024.8330,N,3028.1955,E,2,17,0.1,71.0,M,0.0,M,1.0,0001*79,$GPRMC,141446.46,A,6024.8330,N,3028.1955,E,9.7,-94.0,011020,10.5,E,A*24
$GPGGA,141446.75,6024.8330,N,3028.1955,E,2,17,0.1,71.0,M,0.0,M,1.0,0001*79,$GPRMC,141446.75,A,6024.8330,N,3028.1955,E,9.7,-121.0,011020,10.5,E,A*1b
$GPGGA,141447.02,6024.8330,N,3028.1955,E,2,17,0.1,71.0,M,0.0,M,1.0,0001*78,$GPRMC,141447.02,A,6024.8330,N,3028.1955,E,9.7,-118.0,011020,10.5,E,A*10
$GPGGA,141447.34,6024.8330,N,3028.1954,E,2,17,0.1,71.0,M,0.0,M,1.0,0001*7c,$GPRMC,141447.34,A,6024.8330,N,3028.1954,E,9.7,-122.0,011020,10.5,E,A*1d
$GPGGA,141447.62,6024.8329,N,3028.1954,E,2,17,0.1,71.0,M,0.0,M,1.0,0001*77,$GPRMC,141447.62,A,6024.8329,N,3028.1954,E,9.7,-121.0,011020,10.5,E,A*15
$GPGGA,141447.94,6024.8329,N,3028.1954,E,2,17,0.1,71.0,M,0.0,M,1.0,0001*7e,$GPRMC,141447.94,A,6024.8329,N,3028.1954,E,9.7,-118.0,011020,10.5,E,A*16
$GPGGA,141448.22,6024.8330,N,3028.1954,E,2,17,0.1,71.0,M,0.0,M,1.0,0001*74,$GPRMC,141448.22,A,6024.8330,N,3028.1954,E,9.7,-118.0,011020,10.5,E,A*1c
$GPGGA,141448.54,6024.8330,N,3028.1954,E,2,17,0.1,71.0,M,0.0,M,1.0,0001*75,$GPRMC,141448.54,A,6024.8330,N,3028.1954,E,9.7,-139.0,011020,10.5,E,A*1e
$GPGGA,141448.82,6024.8330,N,3028.1953,E,2,19,0.1,71.0,M,0.0,M,1.0,0001*77,$GPRMC,141448.82,A,6024.8330,N,3028.1953,E,9.7,-156.0,011020,10.5,E,A*1b
$GPGGA,141449.14,6024.8330,N,3028.1953,E,2,19,0.1,71.0,M,0.0,M,1.0,0001*79,$GPRMC,141449.14,A,6024.8330,N,3028.1953,E,9.7,-144.0,011020,10.5,E,A*16
$GPGGA,141449.42,6024.8330,N,3028.1953,E,2,19,0.1,71.0,M,0.0,M,1.0,0001*7a,$GPRMC,141449.42,A,6024.8330,N,3028.1953,E,9.7,-158.0,011020,10.5,E,A*18
$GPGGA,141449.75,6024.8330,N,3028.1953,E,2,19,0.1,72.0,M,0.0,M,1.0,0001*7d,$GPRMC,141449.75,A,6024.8330,N,3028.1953,E,9.7,-104.0,011020,10.5,E,A*15
$GPGGA,141450.02,6024.8330,N,3028.1954,E,2,19,0.1,72.0,M,0.0,M,1.0,0001*72,$GPRMC,141450.02,A,6024.8330,N,3028.1954,E,9.7,-38.0,011020,10.5,E,A*24
$GPGGA,141450.34,6024.8331,N,3028.1954,E,2,19,0.1,72.0,M,0.0,M,1.0,0001*76,$GPRMC,141450.34,A,6024.8331,N,3028.1954,E,9.7,75.0,011020,10.5,E,A*04
$GPGGA,141450.63,6024.8331,N,3028.1955,E,2,17,0.1,72.0,M,0.0,M,1.0,0001*7b,$GPRMC,141450.63,A,6024.8331,N,3028.1955,E,9.7,62.0,011020,10.5,E,A*01
$GPGGA,141450.94,6024.8331,N,3028.1955,E,2,17,0.1,72.0,M,0.0,M,1.0,0001*73,$GPRMC,141450.94,A,6024.8331,N,3028.1955,E,9.7,95.0,011020,10.5,E,A*01
$GPGGA,141451.22,6024.8331,N,3028.1954,E,2,17,0.1,72.0,M,0.0,M,1.0,0001*7e,$GPRMC,141451.22,A,6024.8331,N,3028.1954,E,9.7,72.0,011020,10.5,E,A*05
$GPGGA,141451.55,6024.8332,N,3028.1953,E,2,19,0.1,72.0,M,0.0,M,1.0,0001*74,$GPRMC,141451.55,A,6024.8332,N,3028.1953,E,9.7,42.0,011020,10.5,E,A*02
$GPGGA,141451.82,6024.8333,N,3028.1953,E,2,19,0.1,72.0,M,0.0,M,1.0,0001*7f,$GPRMC,141451.82,A,6024.8333,N,3028.1953,E,9.7,15.0,011020,10.5,E,A*0b
$GPGGA,141452.14,6024.8334,N,3028.1954,E,2,19,0.1,72.0,M,0.0,M,1.0,0001*73,$GPRMC,141452.14,A,6024.8334,N,3028.1954,E,9.7,22.0,011020,10.5,E,A*03
$GPGGA,141452.42,6024.8335,N,3028.1955,E,2,19,0.1,72.0,M,0.0,M,1.0,0001*70,$GPRMC,141452.42,A,6024.8335,N,3028.1955,E,9.7,-6.0,011020,10.5,E,A*1b
$GPGGA,141452.75,6024.8335,N,3028.1956,E,2,19,0.1,72.0,M,0.0,M,1.0,0001*77,$GPRMC,141452.75,A,6024.8335,N,3028.1956,E,9.7,39.0,011020,10.5,E,A*0d
$GPGGA,141453.02,6024.8335,N,3028.1959,E,2,19,0.1,71.0,M,0.0,M,1.0,0001*7a,$GPRMC,141453.02,A,6024.8335,N,3028.1959,E,9.7,86.0,011020,10.5,E,A*07
$GPGGA,141453.34,6024.8334,N,3028.1962,E,2,19,0.1,71.0,M,0.0,M,1.0,0001*76,$GPRMC,141453.34,A,6024.8334,N,3028.1962,E,9.7,78.0,011020,10.5,E,A*0a
$GPGGA,141453.63,6024.8334,N,3028.1962,E,2,19,0.1,71.0,M,0.0,M,1.0,0001*74,$GPRMC,141453.63,A,6024.8334,N,3028.1962,E,9.7,80.0,011020,10.5,E,A*0f
$GPGGA,141453.94,6024.8334,N,3028.1960,E,2,19,0.1,71.0,M,0.0,M,1.0,0001*7e,$GPRMC,141453.94,A,6024.8334,N,3028.1960,E,9.7,26.0,011020,10.5,E,A*09
$GPGGA,141454.23,6024.8335,N,3028.1960,E,2,20,0.1,71.0,M,0.0,M,1.0,0001*7e,$GPRMC,141454.23,A,6024.8335,N,3028.1960,E,9.7,59.0,011020,10.5,E,A*0b
$GPGGA,141454.51,6024.8335,N,3028.1961,E,2,20,0.1,71.0,M,0.0,M,1.0,0001*7a,$GPRMC,141454.51,A,6024.8335,N,3028.1961,E,9.7,-116.0,011020,10.5,E,A*18
$GPGGA,141454.82,6024.8335,N,3028.1961,E,2,20,0.1,71.0,M,0.0,M,1.0,0001*74,$GPRMC,141454.82,A,6024.8335,N,3028.1961,E,9.7,-146.0,011020,10.5,E,A*13
$GPGGA,141455.10,6024.8334,N,3028.1961,E,2,21,0.1,71.0,M,0.0,M,1.0,0001*7e,$GPRMC,141455.10,A,6024.8334,N,3028.1961,E,9.7,-90.0,011020,10.5,E,A*22
$GPGGA,141455.43,6024.8334,N,3028.1961,E,2,21,0.1,71.0,M,0.0,M,1.0,0001*78,$GPRMC,141455.43,A,6024.8334,N,3028.1961,E,9.7,-71.0,011020,10.5,E,A*2b
$GPGGA,141455.71,6024.8335,N,3028.1961,E,2,21,0.1,71.0,M,0.0,M,1.0,0001*78,$GPRMC,141455.71,A,6024.8335,N,3028.1961,E,9.7,-63.0,011020,10.5,E,A*28
$GPGGA,141456.02,6024.8335,N,3028.1962,E,2,19,0.1,71.0,M,0.0,M,1.0,0001*77,$GPRMC,141456.02,A,6024.8335,N,3028.1962,E,9.7,123.0,011020,10.5,E,A*34
$GPGGA,141456.30,6024.8335,N,3028.1962,E,2,19,0.1,71.0,M,0.0,M,1.0,0001*76,$GPRMC,141456.30,A,6024.8335,N,3028.1962,E,9.7,90.0,011020,10.5,E,A*0c
$GPGGA,141456.63,6024.8335,N,3028.1962,E,2,19,0.1,71.0,M,0.0,M,1.0,0001*70,$GPRMC,141456.63,A,6024.8335,N,3028.1962,E,9.7,0.0,011020,10.5,E,A*33
$GPGGA,141456.90,6024.8335,N,3028.1963,E,2,18,0.1,71.0,M,0.0,M,1.0,0001*7c,$GPRMC,141456.90,A,6024.8335,N,3028.1963,E,9.7,45.0,011020,10.5,E,A*0f
$GPGGA,141457.22,6024.8335,N,3028.1963,E,2,18,0.1,71.0,M,0.0,M,1.0,0001*74,$GPRMC,141457.22,A,6024.8335,N,3028.1963,E,9.7,180.0,011020,10.5,E,A*3f
$GPGGA,141457.50,6024.8335,N,3028.1963,E,2,18,0.1,71.0,M,0.0,M,1.0,0001*71,$GPRMC,141457.50,A,6024.8335,N,3028.1963,E,9.7,135.0,011020,10.5,E,A*34
$GPGGA,141457.82,6024.8335,N,3028.1963,E,2,19,0.1,71.0,M,0.0,M,1.0,0001*7f,$GPRMC,141457.82,A,6024.8335,N,3028.1963,E,9.7,-135.0,011020,10.5,E,A*16
$GPGGA,141458.11,6024.8335,N,3028.1963,E,2,19,0.1,71.0,M,0.0,M,1.0,0001*7a,$GPRMC,141458.11,A,6024.8335,N,3028.1963,E,9.7,0.0,011020,10.5,E,A*39
$GPGGA,141458.43,6024.8335,N,3028.1963,E,2,19,0.1,71.0,M,0.0,M,1.0,0001*7d,$GPRMC,141458.43,A,6024.8335,N,3028.1963,E,9.7,0.0,011020,10.5,E,A*3e
$GPGGA,141458.70,6024.8335,N,3028.1964,E,2,19,0.1,71.0,M,0.0,M,1.0,0001*7a,$GPRMC,141458.70,A,6024.8335,N,3028.1964,E,9.7,0.0,011020,10.5,E,A*39
$GPGGA,141459.02,6024.8335,N,3028.1964,E,2,19,0.1,71.0,M,0.0,M,1.0,0001*7e,$GPRMC,141459.02,A,6024.8335,N,3028.1964,E,9.7,0.0,011020,10.5,E,A*3d
$GPGGA,141459.30,6024.8335,N,3028.1964,E,2,19,0.1,71.0,M,0.0,M,1.0,0001*7f,$GPRMC,141459.30,A,6024.8335,N,3028.1964,E,9.7,0.0,011020,10.5,E,A*3c
$GPGGA,141459.63,6024.8335,N,3028.1964,E,2,20,0.1,71.0,M,0.0,M,1.0,0001*73,$GPRMC,141459.63,A,6024.8335,N,3028.1964,E,9.7,0.0,011020,10.5,E,A*3a
$GPGGA,141459.90,6024.8335,N,3028.1964,E,2,20,0.1,71.0,M,0.0,M,1.0,0001*7f,$GPRMC,141459.90,A,6024.8335,N,3028.1964,E,9.7,0.0,011020,10.5,E,A*36
$GPGGA,141500.22,6024.8335,N,3028.1964,E,2,20,0.1,71.0,M,0.0,M,1.0,0001*7b,$GPRMC,141500.22,A,6024.8335,N,3028.1964,E,9.7,-90.0,011020,10.5,E,A*26
$GPGGA,141500.50,6024.8335,N,3028.1964,E,2,20,0.1,71.0,M,0.0,M,1.0,0001*7e,$GPRMC,141500.50,A,6024.8335,N,3028.1964,E,9.7,-90.0,011020,10.5,E,A*23
$GPGGA,141500.83,6024.8335,N,3028.1965,E,2,20,0.1,71.0,M,0.0,M,1.0,0001*71,$GPRMC,141500.83,A,6024.8335,N,3028.1965,E,9.7,0.0,011020,10.5,E,A*38
$GPGGA,141501.10,6024.8335,N,3028.1965,E,2,20,0.1,71.0,M,0.0,M,1.0,0001*7a,$GPRMC,141501.10,A,6024.8335,N,3028.1965,E,9.7,0.0,011020,10.5,E,A*33
$GPGGA,141501.42,6024.8335,N,3028.1965,E,2,20,0.1,71.0,M,0.0,M,1.0,0001*7d,$GPRMC,141501.42,A,6024.8335,N,3028.1965,E,9.7,0.0,011020,10.5,E,A*34
$GPGGA,141501.70,6024.8335,N,3028.1965,E,2,20,0.1,71.0,M,0.0,M,1.0,0001*7c,$GPRMC,141501.70,A,6024.8335,N,3028.1965,E,9.7,-90.0,011020,10.5,E,A*21
$GPGGA,141502.03,6024.8335,N,3028.1965,E,2,20,0.1,71.0,M,0.0,M,1.0,0001*7b,$GPRMC,141502.03,A,6024.8335,N,3028.1965,E,9.7,90.0,011020,10.5,E,A*0b
$GPGGA,141502.31,6024.8335,N,3028.1965,E,2,20,0.1,71.0,M,0.0,M,1.0,0001*7a,$GPRMC,141502.31,A,6024.8335,N,3028.1965,E,9.7,0.0,011020,10.5,E,A*33
$GPGGA,141502.58,6024.8335,N,3028.1965,E,2,20,0.1,71.0,M,0.0,M,1.0,0001*75,$GPRMC,141502.58,A,6024.8335,N,3028.1965,E,9.7,0.0,011020,10.5,E,A*3c
$GPGGA,141502.91,6024.8335,N,3028.1966,E,2,20,0.1,71.0,M,0.0,M,1.0,0001*73,$GPRMC,141502.91,A,6024.8335,N,3028.1966,E,9.7,0.0,011020,10.5,E,A*3a
$GPGGA,141503.22,6024.8335,N,3028.1966,E,2,20,0.1,71.0,M,0.0,M,1.0,0001*7a,$GPRMC,141503.22,A,6024.8335,N,3028.1966,E,9.7,0.0,011020,10.5,E,A*33
$GPGGA,141503.51,6024.8335,N,3028.1966,E,2,20,0.1,71.0,M,0.0,M,1.0,0001*7e,$GPRMC,141503.51,A,6024.8335,N,3028.1966,E,9.7,90.0,011020,10.5,E,A*0e
$GPGGA,141503.79,6024.8335,N,3028.1966,E,2,20,0.1,71.0,M,0.0,M,1.0,0001*74,$GPRMC,141503.79,A,6024.8335,N,3028.1966,E,9.7,0.0,011020,10.5,E,A*3d
$GPGGA,141504.11,6024.8335,N,3028.1966,E,2,20,0.1,72.0,M,0.0,M,1.0,0001*7e,$GPRMC,141504.11,A,6024.8335,N,3028.1966,E,9.7,0.0,011020,10.5,E,A*34
$GPGGA,141504.39,6024.8335,N,3028.1966,E,2,20,0.1,72.0,M,0.0,M,1.0,0001*74,$GPRMC,141504.39,A,6024.8335,N,3028.1966,E,9.7,0.0,011020,10.5,E,A*3e
$GPGGA,141504.71,6024.8335,N,3028.1966,E,2,20,0.1,72.0,M,0.0,M,1.0,0001*78,$GPRMC,141504.71,A,6024.8335,N,3028.1966,E,9.7,0.0,011020,10.5,E,A*32
$GPGGA,141504.99,6024.8335,N,3028.1966,E,2,19,0.1,72.0,M,0.0,M,1.0,0001*74,$GPRMC,141504.99,A,6024.8335,N,3028.1966,E,9.7,0.0,011020,10.5,E,A*34
$GPGGA,141505.30,6024.8335,N,3028.1966,E,2,19,0.1,72.0,M,0.0,M,1.0,0001*76,$GPRMC,141505.30,A,6024.8335,N,3028.1966,E,9.7,180.0,011020,10.5,E,A*3f
$GPGGA,141505.59,6024.8335,N,3028.1967,E,2,19,0.1,72.0,M,0.0,M,1.0,0001*78,$GPRMC,141505.59,A,6024.8335,N,3028.1967,E,9.7,0.0,011020,10.5,E,A*38
$GPGGA,141505.90,6024.8335,N,3028.1967,E,2,19,0.1,72.0,M,0.0,M,1.0,0001*7d,$GPRMC,141505.90,A,6024.8335,N,3028.1967,E,9.7,0.0,011020,10.5,E,A*3d
$GPGGA,141506.23,6024.8335,N,3028.1967,E,2,19,0.1,72.0,M,0.0,M,1.0,0001*76,$GPRMC,141506.23,A,6024.8335,N,3028.1967,E,9.7,0.0,011020,10.5,E,A*36
$GPGGA,141506.50,6024.8335,N,3028.1967,E,2,19,0.1,71.0,M,0.0,M,1.0,0001*71,$GPRMC,141506.50,A,6024.8335,N,3028.1967,E,9.7,0.0,011020,10.5,E,A*32
$GPGGA,141506.78,6024.8335,N,3028.1967,E,2,19,0.1,71.0,M,0.0,M,1.0,0001*7b,$GPRMC,141506.78,A,6024.8335,N,3028.1967,E,9.7,0.0,011020,10.5,E,A*38
$GPGGA,141507.10,6024.8335,N,3028.1967,E,2,19,0.1,71.0,M,0.0,M,1.0,0001*74,$GPRMC,141507.10,A,6024.8335,N,3028.1967,E,9.7,180.0,011020,10.5,E,A*3e
$GPGGA,141507.38,6024.8335,N,3028.1967,E,2,19,0.1,71.0,M,0.0,M,1.0,0001*7e,$GPRMC,141507.38,A,6024.8335,N,3028.1967,E,9.7,90.0,011020,10.5,E,A*04
$GPGGA,141507.71,6024.8335,N,3028.1967,E,2,19,0.1,71.0,M,0.0,M,1.0,0001*73,$GPRMC,141507.71,A,6024.8335,N,3028.1967,E,9.7,180.0,011020,10.5,E,A*39
$GPGGA,141507.98,6024.8335,N,3028.1967,E,2,19,0.1,71.0,M,0.0,M,1.0,0001*74,$GPRMC,141507.98,A,6024.8335,N,3028.1967,E,9.7,0.0,011020,10.5,E,A*37
$GPGGA,141508.31,6024.8335,N,3028.1967,E,2,19,0.1,71.0,M,0.0,M,1.0,0001*78,$GPRMC,141508.31,A,6024.8335,N,3028.1967,E,9.7,180.0,011020,10.5,E,A*32
$GPGGA,141508.58,6024.8335,N,3028.1967,E,2,19,0.1,71.0,M,0.0,M,1.0,0001*77,$GPRMC,141508.58,A,6024.8335,N,3028.1967,E,9.7,-45.0,011020,10.5,E,A*28
$GPGGA,141508.90,6024.8334,N,3028.1967,E,2,19,0.1,71.0,M,0.0,M,1.0,0001*72,$GPRMC,141508.90,A,6024.8334,N,3028.1967,E,9.7,0.0,011020,10.5,E,A*31
$GPGGA,141509.22,6024.8334,N,3028.1967,E,2,19,0.1,71.0,M,0.0,M,1.0,0001*7a,$GPRMC,141509.22,A,6024.8334,N,3028.1967,E,9.7,0.0,011020,10.5,E,A*39
$GPGGA,141509.51,6024.8334,N,3028.1967,E,2,19,0.1,71.0,M,0.0,M,1.0,0001*7e,$GPRMC,141509.51,A,6024.8334,N,3028.1967,E,9.7,0.0,011020,10.5,E,A*3d
$GPGGA,141509.78,6024.8334,N,3028.1968,E,2,19,0.1,71.0,M,0.0,M,1.0,0001*7a,$GPRMC,141509.78,A,6024.8334,N,3028.1968,E,9.7,0.0,011020,10.5,E,A*39
$GPGGA,141510.06,6024.8334,N,3028.1968,E,2,19,0.1,71.0,M,0.0,M,1.0,0001*7b,$GPRMC,141510.06,A,6024.8334,N,3028.1968,E,9.7,0.0,011020,10.5,E,A*38
$GPGGA,141510.38,6024.8334,N,3028.1968,E,2,19,0.1,71.0,M,0.0,M,1.0,0001*76,$GPRMC,141510.38,A,6024.8334,N,3028.1968,E,9.7,0.0,011020,10.5,E,A*35
$GPGGA,141510.67,6024.8334,N,3028.1968,E,2,19,0.1,71.0,M,0.0,M,1.0,0001*7c,$GPRMC,141510.67,A,6024.8334,N,3028.1968,E,9.7,0.0,011020,10.5,E,A*3f
$GPGGA,141510.99,6024.8334,N,3028.1968,E,2,19,0.1,71.0,M,0.0,M,1.0,0001*7d,$GPRMC,141510.99,A,6024.8334,N,3028.1968,E,9.7,180.0,011020,10.5,E,A*37
$GPGGA,141511.27,6024.8334,N,3028.1968,E,2,19,0.1,71.0,M,0.0,M,1.0,0001*79,$GPRMC,141511.27,A,6024.8334,N,3028.1968,E,9.7,0.0,011020,10.5,E,A*3a
$GPGGA,141511.59,6024.8334,N,3028.1968,E,2,19,0.1,71.0,M,0.0,M,1.0,0001*70,$GPRMC,141511.59,A,6024.8334,N,3028.1968,E,9.7,0.0,011020,10.5,E,A*33
$GPGGA,141511.86,6024.8334,N,3028.1968,E,2,19,0.1,71.0,M,0.0,M,1.0,0001*72,$GPRMC,141511.86,A,6024.8334,N,3028.1968,E,9.7,0.0,011020,10.5,E,A*31
$GPGGA,141512.22,6024.8334,N,3028.1968,E,2,19,0.1,71.0,M,0.0,M,1.0,0001*7f,$GPRMC,141512.22,A,6024.8334,N,3028.1968,E,9.7,0.0,011020,10.5,E,A*3c
$GPGGA,141512.46,6024.8334,N,3028.1968,E,2,19,0.1,71.0,M,0.0,M,1.0,0001*7d,$GPRMC,141512.46,A,6024.8334,N,3028.1968,E,9.7,0.0,011020,10.5,E,A*3e
$GPGGA,141512.79,6024.8334,N,3028.1968,E,2,19,0.1,71.0,M,0.0,M,1.0,0001*71,$GPRMC,141512.79,A,6024.8334,N,3028.1968,E,9.7,0.0,011020,10.5,E,A*32
$GPGGA,141513.06,6024.8334,N,3028.1968,E,2,19,0.1,71.0,M,0.0,M,1.0,0001*78,$GPRMC,141513.06,A,6024.8334,N,3028.1968,E,9.7,0.0,011020,10.5,E,A*3b
$GPGGA,141513.39,6024.8334,N,3028.1968,E,2,19,0.1,71.0,M,0.0,M,1.0,0001*74,$GPRMC,141513.39,A,6024.8334,N,3028.1968,E,9.7,0.0,011020,10.5,E,A*37
$GPGGA,141513.66,6024.8334,N,3028.1968,E,2,19,0.1,71.0,M,0.0,M,1.0,0001*7e,$GPRMC,141513.66,A,6024.8334,N,3028.1968,E,9.7,0.0,011020,10.5,E,A*3d
$GPGGA,141513.99,6024.8334,N,3028.1968,E,2,19,0.1,71.0,M,0.0,M,1.0,0001*7e,$GPRMC,141513.99,A,6024.8334,N,3028.1968,E,9.7,-45.0,011020,10.5,E,A*21
$GPGGA,141514.27,6024.8334,N,3028.1968,E,2,19,0.1,71.0,M,0.0,M,1.0,0001*7c,$GPRMC,141514.27,A,6024.8334,N,3028.1968,E,9.7,0.0,011020,10.5,E,A*3f
$GPGGA,141514.58,6024.8334,N,3028.1968,E,2,19,0.1,71.0,M,0.0,M,1.0,0001*74,$GPRMC,141514.58,A,6024.8334,N,3028.1968,E,9.7,0.0,011020,10.5,E,A*37
$GPGGA,141514.86,6024.8334,N,3028.1968,E,2,18,0.1,71.0,M,0.0,M,1.0,0001*76,$GPRMC,141514.86,A,6024.8334,N,3028.1968,E,9.7,0.0,011020,10.5,E,A*34
$GPGGA,141515.22,6024.8334,N,3028.1968,E,2,18,0.1,71.0,M,0.0,M,1.0,0001*79,$GPRMC,141515.22,A,6024.8334,N,3028.1968,E,9.7,0.0,011020,10.5,E,A*3b
$GPGGA,141515.47,6024.8333,N,3028.1968,E,2,18,0.1,71.0,M,0.0,M,1.0,0001*7d,$GPRMC,141515.47,A,6024.8333,N,3028.1968,E,9.7,0.0,011020,10.5,E,A*3f
$GPGGA,141515.79,6024.8333,N,3028.1968,E,2,18,0.1,71.0,M,0.0,M,1.0,0001*70,$GPRMC,141515.79,A,6024.8333,N,3028.1968,E,9.7,0.0,011020,10.5,E,A*32
$GPGGA,141516.07,6024.8333,N,3028.1968,E,2,18,0.1,71.0,M,0.0,M,1.0,0001*7a,$GPRMC,141516.07,A,6024.8333,N,3028.1968,E,9.7,0.0,011020,10.5,E,A*38
$GPGGA,141516.38,6024.8333,N,3028.1968,E,2,18,0.1,71.0,M,0.0,M,1.0,0001*76,$GPRMC,141516.38,A,6024.8333,N,3028.1968,E,9.7,0.0,011020,10.5,E,A*34
$GPGGA,141516.67,6024.8333,N,3028.1968,E,2,18,0.1,71.0,M,0.0,M,1.0,0001*7c,$GPRMC,141516.67,A,6024.8333,N,3028.1968,E,9.7,0.0,011020,10.5,E,A*3e
$GPGGA,141516.99,6024.8333,N,3028.1968,E,2,18,0.1,71.0,M,0.0,M,1.0,0001*7d,$GPRMC,141516.99,A,6024.8333,N,3028.1968,E,9.7,45.0,011020,10.5,E,A*0e
$GPGGA,141517.27,6024.8333,N,3028.1969,E,2,18,0.1,71.0,M,0.0,M,1.0,0001*78,$GPRMC,141517.27,A,6024.8333,N,3028.1969,E,9.7,0.0,011020,10.5,E,A*3a
$GPGGA,141517.55,6024.8333,N,3028.1969,E,2,18,0.1,71.0,M,0.0,M,1.0,0001*7d,$GPRMC,141517.55,A,6024.8333,N,3028.1969,E,9.7,180.0,011020,10.5,E,A*36
$GPGGA,141517.86,6024.8333,N,3028.1969,E,2,18,0.1,71.0,M,0.0,M,1.0,0001*73,$GPRMC,141517.86,A,6024.8333,N,3028.1969,E,9.7,90.0,011020,10.5,E,A*08
$GPGGA,141518.14,6024.8333,N,3028.1969,E,2,18,0.1,71.0,M,0.0,M,1.0,0001*77,$GPRMC,141518.14,A,6024.8333,N,3028.1969,E,9.7,-45.0,011020,10.5,E,A*29
$GPGGA,141518.47,6024.8333,N,3028.1969,E,2,18,0.1,71.0,M,0.0,M,1.0,0001*71,$GPRMC,141518.47,A,6024.8333,N,3028.1969,E,9.7,-45.0,011020,10.5,E,A*2f
$GPGGA,141518.74,6024.8333,N,3028.1969,E,2,18,0.1,71.0,M,0.0,M,1.0,0001*71,$GPRMC,141518.74,A,6024.8333,N,3028.1969,E,9.7,180.0,011020,10.5,E,A*3a
$GPGGA,141519.06,6024.8333,N,3028.1969,E,2,18,0.1,71.0,M,0.0,M,1.0,0001*75,$GPRMC,141519.06,A,6024.8333,N,3028.1969,E,9.7,-90.0,011020,10.5,E,A*23
$GPGGA,141519.35,6024.8333,N,3028.1969,E,2,18,0.1,71.0,M,0.0,M,1.0,0001*75,$GPRMC,141519.35,A,6024.8333,N,3028.1969,E,9.7,180.0,011020,10.5,E,A*3e
$GPGGA,141519.67,6024.8333,N,3028.1969,E,2,18,0.1,71.0,M,0.0,M,1.0,0001*72,$GPRMC,141519.67,A,6024.8333,N,3028.1969,E,9.7,0.0,011020,10.5,E,A*30
$GPGGA,141519.94,6024.8333,N,3028.1969,E,2,18,0.1,71.0,M,0.0,M,1.0,0001*7e,$GPRMC,141519.94,A,6024.8333,N,3028.1969,E,9.7,0.0,011020,10.5,E,A*3c
$GPGGA,141520.27,6024.8333,N,3028.1969,E,2,19,0.1,71.0,M,0.0,M,1.0,0001*7d,$GPRMC,141520.27,A,6024.8333,N,3028.1969,E,9.7,0.0,011020,10.5,E,A*3e
$GPGGA,141520.54,6024.8333,N,3028.1969,E,2,19,0.1,71.0,M,0.0,M,1.0,0001*79,$GPRMC,141520.54,A,6024.8333,N,3028.1969,E,9.7,0.0,011020,10.5,E,A*3a
$GPGGA,141520.87,6024.8333,N,3028.1969,E,2,19,0.1,71.0,M,0.0,M,1.0,0001*77,$GPRMC,141520.87,A,6024.8333,N,3028.1969,E,9.7,0.0,011020,10.5,E,A*34
$GPGGA,141521.14,6024.8333,N,3028.1970,E,2,19,0.1,71.0,M,0.0,M,1.0,0001*74,$GPRMC,141521.14,A,6024.8333,N,3028.1970,E,9.7,-90.0,011020,10.5,E,A*23
$GPGGA,141521.46,6024.8333,N,3028.1970,E,2,19,0.1,71.0,M,0.0,M,1.0,0001*73,$GPRMC,141521.46,A,6024.8333,N,3028.1970,E,9.7,0.0,011020,10.5,E,A*30
$GPGGA,141521.75,6024.8333,N,3028.1970,E,2,19,0.1,71.0,M,0.0,M,1.0,0001*73,$GPRMC,141521.75,A,6024.8333,N,3028.1970,E,9.7,0.0,011020,10.5,E,A*30
$GPGGA,141522.07,6024.8333,N,3028.1970,E,2,19,0.1,71.0,M,0.0,M,1.0,0001*75,$GPRMC,141522.07,A,6024.8333,N,3028.1970,E,9.7,0.0,011020,10.5,E,A*36
$GPGGA,141522.34,6024.8333,N,3028.1970,E,2,19,0.1,71.0,M,0.0,M,1.0,0001*75,$GPRMC,141522.34,A,6024.8333,N,3028.1970,E,9.7,0.0,011020,10.5,E,A*36
$GPGGA,141522.66,6024.8333,N,3028.1970,E,2,19,0.1,71.0,M,0.0,M,1.0,0001*72,$GPRMC,141522.66,A,6024.8333,N,3028.1970,E,9.7,0.0,011020,10.5,E,A*31
$GPGGA,141522.95,6024.8333,N,3028.1970,E,2,19,0.1,71.0,M,0.0,M,1.0,0001*7e,$GPRMC,141522.95,A,6024.8333,N,3028.1970,E,9.7,0.0,011020,10.5,E,A*3d
$GPGGA,141523.27,6024.8333,N,3028.1970,E,2,19,0.1,71.0,M,0.0,M,1.0,0001*76,$GPRMC,141523.27,A,6024.8333,N,3028.1970,E,9.7,0.0,011020,10.5,E,A*35
$GPGGA,141523.54,6024.8333,N,3028.1970,E,2,19,0.1,71.0,M,0.0,M,1.0,0001*72,$GPRMC,141523.54,A,6024.8333,N,3028.1970,E,9.7,0.0,011020,10.5,E,A*31
$GPGGA,141523.87,6024.8333,N,3028.1970,E,2,20,0.1,71.0,M,0.0,M,1.0,0001*76,$GPRMC,141523.87,A,6024.8333,N,3028.1970,E,9.7,180.0,011020,10.5,E,A*36
